[
  {
    "elevation_name": "Mount Greylock",
    "city": "ADAMS",
    "elevation_ft": 3501,
    "elevation_type": "peak",
    "TOWN_ID": 4,
    "TYPE": "T",
    "COUNTY": "BERKSHIRE",
    "FIPS_STCO": 25003,
    "POP2010": 8485,
    "POP2020": 8166,
    "POPCH10_20": -319,
    "_max": 1067,
    "latitude": 42.63722222,
    "longitude": -73.16611111,
    "view": "T",
    "chp": ""
  },
  {
    "elevation_name": "Mount Greylock slope",
    "city": "WILLIAMSTOWN",
    "elevation_ft": 3320,
    "elevation_type": "slope",
    "TOWN_ID": 341,
    "TYPE": "T",
    "COUNTY": "BERKSHIRE",
    "FIPS_STCO": 25003,
    "POP2010": 7754,
    "POP2020": 7513,
    "POPCH10_20": -241,
    "_max": 1012,
    "latitude": 42.63777778,
    "longitude": -73.17111111,
    "view": "",
    "chp": ""
  },
  {
    "elevation_name": "Saddle Ball Mountain",
    "city": "NEW ASHFORD",
    "elevation_ft": 3255,
    "elevation_type": "peak",
    "TOWN_ID": 200,
    "TYPE": "T",
    "COUNTY": "BERKSHIRE",
    "FIPS_STCO": 25003,
    "POP2010": 228,
    "POP2020": 250,
    "POPCH10_20": 22,
    "_max": 992,
    "latitude": 42.61666667,
    "longitude": -73.18916667,
    "view": "F",
    "chp": ""
  },
  {
    "elevation_name": "Mount Williams",
    "city": "NORTH ADAMS",
    "elevation_ft": 2956,
    "elevation_type": "peak",
    "TOWN_ID": 209,
    "TYPE": "C",
    "COUNTY": "BERKSHIRE",
    "FIPS_STCO": 25003,
    "POP2010": 13708,
    "POP2020": 12961,
    "POPCH10_20": -747,
    "_max": 901,
    "latitude": 42.66722222,
    "longitude": -73.15805556,
    "view": "",
    "chp": ""
  },
  {
    "elevation_name": "Crum Hill",
    "city": "MONROE",
    "elevation_ft": 2848,
    "elevation_type": "peak",
    "TOWN_ID": 190,
    "TYPE": "T",
    "COUNTY": "FRANKLIN",
    "FIPS_STCO": 25011,
    "POP2010": 121,
    "POP2020": 118,
    "POPCH10_20": -3,
    "_max": 868,
    "latitude": 42.71083333,
    "longitude": -73.01972222,
    "view": "",
    "chp": ""
  },
  {
    "elevation_name": "Crum Hill slope",
    "city": "FLORIDA",
    "elevation_ft": 2828,
    "elevation_type": "slope",
    "TOWN_ID": 98,
    "TYPE": "T",
    "COUNTY": "BERKSHIRE",
    "FIPS_STCO": 25003,
    "POP2010": 752,
    "POP2020": 694,
    "POPCH10_20": -58,
    "_max": 862,
    "latitude": 42.71527778,
    "longitude": -73.02361111,
    "view": "",
    "chp": ""
  },
  {
    "elevation_name": "Misery Mountain south slope",
    "city": "HANCOCK",
    "elevation_ft": 2667,
    "elevation_type": "slope",
    "TOWN_ID": 121,
    "TYPE": "T",
    "COUNTY": "BERKSHIRE",
    "FIPS_STCO": 25003,
    "POP2010": 717,
    "POP2020": 757,
    "POPCH10_20": 40,
    "_max": 813,
    "latitude": 42.61444444,
    "longitude": -73.31166667,
    "view": "",
    "chp": ""
  },
  {
    "elevation_name": "Mount Everett",
    "city": "MOUNT WASHINGTON",
    "elevation_ft": 2592,
    "elevation_type": "peak",
    "TOWN_ID": 195,
    "TYPE": "T",
    "COUNTY": "BERKSHIRE",
    "FIPS_STCO": 25003,
    "POP2010": 167,
    "POP2020": 160,
    "POPCH10_20": -7,
    "_max": 790,
    "latitude": 42.1025,
    "longitude": -73.43277778,
    "view": "T",
    "chp": ""
  },
  {
    "elevation_name": "Rounds Rock",
    "city": "CHESHIRE",
    "elevation_ft": 2589,
    "elevation_type": "peak",
    "TOWN_ID": 58,
    "TYPE": "T",
    "COUNTY": "BERKSHIRE",
    "FIPS_STCO": 25003,
    "POP2010": 3235,
    "POP2020": 3258,
    "POPCH10_20": 23,
    "_max": 789,
    "latitude": 42.59055556,
    "longitude": -73.19972222,
    "view": "",
    "chp": ""
  },
  {
    "elevation_name": "Borden Mountain",
    "city": "SAVOY",
    "elevation_ft": 2526,
    "elevation_type": "peak",
    "TOWN_ID": 263,
    "TYPE": "T",
    "COUNTY": "BERKSHIRE",
    "FIPS_STCO": 25003,
    "POP2010": 692,
    "POP2020": 645,
    "POPCH10_20": -47,
    "_max": 770,
    "latitude": 42.60083333,
    "longitude": -73.02722222,
    "view": "",
    "chp": ""
  },
  {
    "elevation_name": "Widow Whites Peak",
    "city": "LANESBOROUGH",
    "elevation_ft": 2431,
    "elevation_type": "peak",
    "TOWN_ID": 148,
    "TYPE": "T",
    "COUNTY": "BERKSHIRE",
    "FIPS_STCO": 25003,
    "POP2010": 3091,
    "POP2020": 3038,
    "POPCH10_20": -53,
    "_max": 741,
    "latitude": 42.54833333,
    "longitude": -73.27,
    "view": "",
    "chp": ""
  },
  {
    "elevation_name": "East Mountain-South Slope",
    "city": "CLARKSBURG",
    "elevation_ft": 2356,
    "elevation_type": "slope",
    "TOWN_ID": 63,
    "TYPE": "T",
    "COUNTY": "BERKSHIRE",
    "FIPS_STCO": 25003,
    "POP2010": 1702,
    "POP2020": 1657,
    "POPCH10_20": -45,
    "_max": 718,
    "latitude": 42.74361111,
    "longitude": -73.15555556,
    "view": "",
    "chp": ""
  },
  {
    "elevation_name": "Judges Hill",
    "city": "WINDSOR",
    "elevation_ft": 2316,
    "elevation_type": "peak",
    "TOWN_ID": 345,
    "TYPE": "T",
    "COUNTY": "BERKSHIRE",
    "FIPS_STCO": 25003,
    "POP2010": 899,
    "POP2020": 831,
    "POPCH10_20": -68,
    "_max": 706,
    "latitude": 42.51888889,
    "longitude": -73.0325,
    "view": "",
    "chp": ""
  },
  {
    "elevation_name": "Weston Mountain",
    "city": "DALTON",
    "elevation_ft": 2290,
    "elevation_type": "peak",
    "TOWN_ID": 70,
    "TYPE": "T",
    "COUNTY": "BERKSHIRE",
    "FIPS_STCO": 25003,
    "POP2010": 6756,
    "POP2020": 6330,
    "POPCH10_20": -426,
    "_max": 698,
    "latitude": 42.51361111,
    "longitude": -73.11777778,
    "view": "",
    "chp": ""
  },
  {
    "elevation_name": "Finerty Pond Mountain",
    "city": "LEE/WASHINGTON",
    "elevation_ft": 2270,
    "elevation_type": "peak",
    "TOWN_ID": 150,
    "TYPE": "T",
    "COUNTY": "BERKSHIRE",
    "FIPS_STCO": 25003,
    "POP2010": 5943,
    "POP2020": 5788,
    "POPCH10_20": -155,
    "_max": 692,
    "latitude": 42.32111111,
    "longitude": -73.17722222,
    "view": "",
    "chp": ""
  },
  {
    "elevation_name": "Haskell Hill",
    "city": "PERU",
    "elevation_ft": 2247,
    "elevation_type": "peak",
    "TOWN_ID": 233,
    "TYPE": "T",
    "COUNTY": "BERKSHIRE",
    "FIPS_STCO": 25003,
    "POP2010": 847,
    "POP2020": 814,
    "POPCH10_20": -33,
    "_max": 685,
    "latitude": 42.40944444,
    "longitude": -73.03833333,
    "view": "",
    "chp": ""
  },
  {
    "elevation_name": "Walling Mountain",
    "city": "BECKET",
    "elevation_ft": 2231,
    "elevation_type": "peak",
    "TOWN_ID": 22,
    "TYPE": "T",
    "COUNTY": "BERKSHIRE",
    "FIPS_STCO": 25003,
    "POP2010": 1779,
    "POP2020": 1931,
    "POPCH10_20": 152,
    "_max": 680,
    "latitude": 42.31027778,
    "longitude": -73.1575,
    "view": "",
    "chp": ""
  },
  {
    "elevation_name": "Pine Hill slope",
    "city": "PITTSFIELD",
    "elevation_ft": 2215,
    "elevation_type": "slope",
    "TOWN_ID": 236,
    "TYPE": "C",
    "COUNTY": "BERKSHIRE",
    "FIPS_STCO": 25003,
    "POP2010": 44737,
    "POP2020": 43927,
    "POPCH10_20": -810,
    "_max": 675,
    "latitude": 42.49333333,
    "longitude": -73.31944444,
    "view": "",
    "chp": ""
  },
  {
    "elevation_name": "Unnamed Point",
    "city": "ROWE",
    "elevation_ft": 2146,
    "elevation_type": "slope",
    "TOWN_ID": 253,
    "TYPE": "T",
    "COUNTY": "FRANKLIN",
    "FIPS_STCO": 25011,
    "POP2010": 393,
    "POP2020": 424,
    "POPCH10_20": 31,
    "_max": 654,
    "latitude": 42.73833333,
    "longitude": -72.89416667,
    "view": "",
    "chp": ""
  },
  {
    "elevation_name": "West Mountain",
    "city": "PLAINFIELD",
    "elevation_ft": 2142,
    "elevation_type": "peak",
    "TOWN_ID": 237,
    "TYPE": "T",
    "COUNTY": "HAMPSHIRE",
    "FIPS_STCO": 25015,
    "POP2010": 648,
    "POP2020": 633,
    "POPCH10_20": -15,
    "_max": 653,
    "latitude": 42.53277778,
    "longitude": -72.95833333,
    "view": "",
    "chp": ""
  },
  {
    "elevation_name": "Mount Wilcox",
    "city": "MONTEREY",
    "elevation_ft": 2133,
    "elevation_type": "peak",
    "TOWN_ID": 193,
    "TYPE": "T",
    "COUNTY": "BERKSHIRE",
    "FIPS_STCO": 25003,
    "POP2010": 961,
    "POP2020": 1095,
    "POPCH10_20": 134,
    "_max": 650,
    "latitude": 42.21916667,
    "longitude": -73.26611111,
    "view": "",
    "chp": ""
  },
  {
    "elevation_name": "Lenox Mountain slope",
    "city": "LENOX",
    "elevation_ft": 2126,
    "elevation_type": "slope",
    "TOWN_ID": 152,
    "TYPE": "T",
    "COUNTY": "BERKSHIRE",
    "FIPS_STCO": 25003,
    "POP2010": 5025,
    "POP2020": 5095,
    "POPCH10_20": 70,
    "_max": 648,
    "latitude": 42.39333333,
    "longitude": -73.31083333,
    "view": "",
    "chp": ""
  },
  {
    "elevation_name": "Unnamed Point",
    "city": "HAWLEY",
    "elevation_ft": 2120,
    "elevation_type": "peak",
    "TOWN_ID": 129,
    "TYPE": "T",
    "COUNTY": "FRANKLIN",
    "FIPS_STCO": 25011,
    "POP2010": 337,
    "POP2020": 353,
    "POPCH10_20": 16,
    "_max": 646,
    "latitude": 42.62,
    "longitude": -72.95555556,
    "view": "",
    "chp": ""
  },
  {
    "elevation_name": "Lenox Mountain slope",
    "city": "RICHMOND",
    "elevation_ft": 2120,
    "elevation_type": "peak",
    "TOWN_ID": 249,
    "TYPE": "T",
    "COUNTY": "BERKSHIRE",
    "FIPS_STCO": 25003,
    "POP2010": 1475,
    "POP2020": 1407,
    "POPCH10_20": -68,
    "_max": 646,
    "latitude": 42.39305556,
    "longitude": -73.31111111,
    "view": "",
    "chp": ""
  },
  {
    "elevation_name": "Bryant Mountain",
    "city": "CUMMINGTON",
    "elevation_ft": 2100,
    "elevation_type": "peak",
    "TOWN_ID": 69,
    "TYPE": "T",
    "COUNTY": "HAMPSHIRE",
    "FIPS_STCO": 25015,
    "POP2010": 872,
    "POP2020": 829,
    "POPCH10_20": -43,
    "_max": 640,
    "latitude": 42.47472222,
    "longitude": -72.96805556,
    "view": "",
    "chp": ""
  },
  {
    "elevation_name": "Tully Mountain",
    "city": "HINSDALE",
    "elevation_ft": 2100,
    "elevation_type": "peak",
    "TOWN_ID": 132,
    "TYPE": "T",
    "COUNTY": "BERKSHIRE",
    "FIPS_STCO": 25003,
    "POP2010": 2032,
    "POP2020": 1919,
    "POPCH10_20": -113,
    "_max": 640,
    "latitude": 42.44055556,
    "longitude": -73.15916667,
    "view": "",
    "chp": ""
  },
  {
    "elevation_name": "Mount Race slope",
    "city": "SHEFFIELD",
    "elevation_ft": 2074,
    "elevation_type": "slope",
    "TOWN_ID": 267,
    "TYPE": "T",
    "COUNTY": "BERKSHIRE",
    "FIPS_STCO": 25003,
    "POP2010": 3257,
    "POP2020": 3327,
    "POPCH10_20": 70,
    "_max": 632,
    "latitude": 42.08416667,
    "longitude": -73.42722222,
    "view": "",
    "chp": ""
  },
  {
    "elevation_name": "Harvey Mountain",
    "city": "WEST STOCKBRIDGE",
    "elevation_ft": 2074,
    "elevation_type": "peak",
    "TOWN_ID": 326,
    "TYPE": "T",
    "COUNTY": "BERKSHIRE",
    "FIPS_STCO": 25003,
    "POP2010": 1306,
    "POP2020": 1343,
    "POPCH10_20": 37,
    "_max": 632,
    "latitude": 42.31277778,
    "longitude": -73.42472222,
    "view": "",
    "chp": ""
  },
  {
    "elevation_name": "Mount Wilcox slope",
    "city": "GREAT BARRINGTON",
    "elevation_ft": 2064,
    "elevation_type": "slope",
    "TOWN_ID": 113,
    "TYPE": "T",
    "COUNTY": "BERKSHIRE",
    "FIPS_STCO": 25003,
    "POP2010": 7104,
    "POP2020": 7172,
    "POPCH10_20": 68,
    "_max": 629,
    "latitude": 42.22638889,
    "longitude": -73.26972222,
    "view": "",
    "chp": ""
  },
  {
    "elevation_name": "Bashan Hill",
    "city": "WORTHINGTON",
    "elevation_ft": 2047,
    "elevation_type": "peak",
    "TOWN_ID": 349,
    "TYPE": "T",
    "COUNTY": "HAMPSHIRE",
    "FIPS_STCO": 25015,
    "POP2010": 1156,
    "POP2020": 1193,
    "POPCH10_20": 37,
    "_max": 624,
    "latitude": 42.44055556,
    "longitude": -72.97944444,
    "view": "",
    "chp": ""
  },
  {
    "elevation_name": "Unnamed Point",
    "city": "EGREMONT",
    "elevation_ft": 2038,
    "elevation_type": "slope",
    "TOWN_ID": 90,
    "TYPE": "T",
    "COUNTY": "BERKSHIRE",
    "FIPS_STCO": 25003,
    "POP2010": 1225,
    "POP2020": 1372,
    "POPCH10_20": 147,
    "_max": 621,
    "latitude": 42.11972222,
    "longitude": -73.43805556,
    "view": "",
    "chp": ""
  },
  {
    "elevation_name": "Unnamed Point",
    "city": "MIDDLEFIELD",
    "elevation_ft": 2021,
    "elevation_type": "slope",
    "TOWN_ID": 183,
    "TYPE": "T",
    "COUNTY": "HAMPSHIRE",
    "FIPS_STCO": 25015,
    "POP2010": 521,
    "POP2020": 385,
    "POPCH10_20": -136,
    "_max": 616,
    "latitude": 42.38333333,
    "longitude": -73.03305556,
    "view": "",
    "chp": ""
  },
  {
    "elevation_name": "Mount Wachusett",
    "city": "PRINCETON",
    "elevation_ft": 2001,
    "elevation_type": "peak",
    "TOWN_ID": 241,
    "TYPE": "T",
    "COUNTY": "WORCESTER",
    "FIPS_STCO": 25027,
    "POP2010": 3413,
    "POP2020": 3495,
    "POPCH10_20": 82,
    "_max": 610,
    "latitude": 42.48944444,
    "longitude": -71.8875,
    "view": "",
    "chp": ""
  },
  {
    "elevation_name": "Camp Rest Hill",
    "city": "TYRINGHAM",
    "elevation_ft": 1975,
    "elevation_type": "peak",
    "TOWN_ID": 302,
    "TYPE": "T",
    "COUNTY": "BERKSHIRE",
    "FIPS_STCO": 25003,
    "POP2010": 327,
    "POP2020": 427,
    "POPCH10_20": 100,
    "_max": 602,
    "latitude": 42.25888889,
    "longitude": -73.17416667,
    "view": "",
    "chp": ""
  },
  {
    "elevation_name": "Dorman Mountain",
    "city": "OTIS",
    "elevation_ft": 1969,
    "elevation_type": "peak",
    "TOWN_ID": 225,
    "TYPE": "T",
    "COUNTY": "BERKSHIRE",
    "FIPS_STCO": 25003,
    "POP2010": 1612,
    "POP2020": 1634,
    "POPCH10_20": 22,
    "_max": 600,
    "latitude": 42.24333333,
    "longitude": -73.16055556,
    "view": "",
    "chp": ""
  },
  {
    "elevation_name": "Tom Ball Mountain",
    "city": "ALFORD",
    "elevation_ft": 1919,
    "elevation_type": "peak",
    "TOWN_ID": 6,
    "TYPE": "T",
    "COUNTY": "BERKSHIRE",
    "FIPS_STCO": 25003,
    "POP2010": 494,
    "POP2020": 486,
    "POPCH10_20": -8,
    "_max": 585,
    "latitude": 42.26944444,
    "longitude": -73.40055556,
    "view": "",
    "chp": ""
  },
  {
    "elevation_name": "Underwood Hill",
    "city": "HEATH",
    "elevation_ft": 1910,
    "elevation_type": "peak",
    "TOWN_ID": 130,
    "TYPE": "T",
    "COUNTY": "FRANKLIN",
    "FIPS_STCO": 25011,
    "POP2010": 706,
    "POP2020": 723,
    "POPCH10_20": 17,
    "_max": 582,
    "latitude": 42.73111111,
    "longitude": -72.8375,
    "view": "",
    "chp": ""
  },
  {
    "elevation_name": "Hawks Mountain",
    "city": "CHARLEMONT",
    "elevation_ft": 1903,
    "elevation_type": "peak",
    "TOWN_ID": 53,
    "TYPE": "T",
    "COUNTY": "FRANKLIN",
    "FIPS_STCO": 25011,
    "POP2010": 1266,
    "POP2020": 1185,
    "POPCH10_20": -81,
    "_max": 580,
    "latitude": 42.62416667,
    "longitude": -72.93027778,
    "view": "",
    "chp": ""
  },
  {
    "elevation_name": "Morley Hill",
    "city": "SANDISFIELD",
    "elevation_ft": 1883,
    "elevation_type": "peak",
    "TOWN_ID": 260,
    "TYPE": "T",
    "COUNTY": "BERKSHIRE",
    "FIPS_STCO": 25003,
    "POP2010": 915,
    "POP2020": 989,
    "POPCH10_20": 74,
    "_max": 574,
    "latitude": 42.16638889,
    "longitude": -73.16416667,
    "view": "",
    "chp": ""
  },
  {
    "elevation_name": "Peter Hill",
    "city": "ASHFIELD",
    "elevation_ft": 1873,
    "elevation_type": "peak",
    "TOWN_ID": 13,
    "TYPE": "T",
    "COUNTY": "FRANKLIN",
    "FIPS_STCO": 25011,
    "POP2010": 1737,
    "POP2020": 1695,
    "POPCH10_20": -42,
    "_max": 571,
    "latitude": 42.53027778,
    "longitude": -72.81944444,
    "view": "",
    "chp": ""
  },
  {
    "elevation_name": "Dry Hill East Peak",
    "city": "NEW MARLBOROUGH",
    "elevation_ft": 1857,
    "elevation_type": "peak",
    "TOWN_ID": 203,
    "TYPE": "T",
    "COUNTY": "BERKSHIRE",
    "FIPS_STCO": 25003,
    "POP2010": 1509,
    "POP2020": 1528,
    "POPCH10_20": 19,
    "_max": 566,
    "latitude": 42.14583333,
    "longitude": -73.22472222,
    "view": "",
    "chp": ""
  },
  {
    "elevation_name": "Unnamed Point",
    "city": "STOCKBRIDGE",
    "elevation_ft": 1841,
    "elevation_type": "peak",
    "TOWN_ID": 283,
    "TYPE": "T",
    "COUNTY": "BERKSHIRE",
    "FIPS_STCO": 25003,
    "POP2010": 1947,
    "POP2020": 2018,
    "POPCH10_20": 71,
    "_max": 561,
    "latitude": 42.25777778,
    "longitude": -73.29611111,
    "view": "",
    "chp": ""
  },
  {
    "elevation_name": "Phillips Hill",
    "city": "COLRAIN",
    "elevation_ft": 1831,
    "elevation_type": "peak",
    "TOWN_ID": 66,
    "TYPE": "T",
    "COUNTY": "FRANKLIN",
    "FIPS_STCO": 25011,
    "POP2010": 1671,
    "POP2020": 1606,
    "POPCH10_20": -65,
    "_max": 558,
    "latitude": 42.73555556,
    "longitude": -72.775,
    "view": "",
    "chp": ""
  },
  {
    "elevation_name": "Unnamed Point",
    "city": "BUCKLAND",
    "elevation_ft": 1821,
    "elevation_type": "peak",
    "TOWN_ID": 47,
    "TYPE": "T",
    "COUNTY": "FRANKLIN",
    "FIPS_STCO": 25011,
    "POP2010": 1902,
    "POP2020": 1816,
    "POPCH10_20": -86,
    "_max": 555,
    "latitude": 42.56,
    "longitude": -72.84805556,
    "view": "",
    "chp": ""
  },
  {
    "elevation_name": "Mount Watatic",
    "city": "ASHBURNHAM",
    "elevation_ft": 1801,
    "elevation_type": "peak",
    "TOWN_ID": 11,
    "TYPE": "T",
    "COUNTY": "WORCESTER",
    "FIPS_STCO": 25027,
    "POP2010": 6081,
    "POP2020": 6315,
    "POPCH10_20": 234,
    "_max": 549,
    "latitude": 42.69694444,
    "longitude": -71.8925,
    "view": "",
    "chp": ""
  },
  {
    "elevation_name": "",
    "city": "CHESTER",
    "elevation_ft": 1798,
    "elevation_type": "peak",
    "TOWN_ID": 59,
    "TYPE": "T",
    "COUNTY": "HAMPDEN",
    "FIPS_STCO": 25013,
    "POP2010": 1337,
    "POP2020": 1228,
    "POPCH10_20": -109,
    "_max": 548,
    "latitude": 42.25555556,
    "longitude": -72.98666667,
    "view": "",
    "chp": ""
  },
  {
    "elevation_name": "",
    "city": "CHESTER",
    "elevation_ft": 1798,
    "elevation_type": "peak",
    "TOWN_ID": 59,
    "TYPE": "T",
    "COUNTY": "HAMPDEN",
    "FIPS_STCO": 25013,
    "POP2010": 1337,
    "POP2020": 1228,
    "POPCH10_20": -109,
    "_max": 548,
    "latitude": 42.25527778,
    "longitude": -72.98666667,
    "view": "",
    "chp": ""
  },
  {
    "elevation_name": "",
    "city": "CHESTER",
    "elevation_ft": 1798,
    "elevation_type": "peak",
    "TOWN_ID": 59,
    "TYPE": "T",
    "COUNTY": "HAMPDEN",
    "FIPS_STCO": 25013,
    "POP2010": 1337,
    "POP2020": 1228,
    "POPCH10_20": -109,
    "_max": 548,
    "latitude": 42.25555556,
    "longitude": -72.98694444,
    "view": "",
    "chp": ""
  },
  {
    "elevation_name": "",
    "city": "BLANDFORD",
    "elevation_ft": 1749,
    "elevation_type": "peak",
    "TOWN_ID": 33,
    "TYPE": "T",
    "COUNTY": "HAMPDEN",
    "FIPS_STCO": 25013,
    "POP2010": 1233,
    "POP2020": 1215,
    "POPCH10_20": -18,
    "_max": 533,
    "latitude": 42.19638889,
    "longitude": -72.99444444,
    "view": "",
    "chp": ""
  },
  {
    "elevation_name": "",
    "city": "BLANDFORD",
    "elevation_ft": 1749,
    "elevation_type": "peak",
    "TOWN_ID": 33,
    "TYPE": "T",
    "COUNTY": "HAMPDEN",
    "FIPS_STCO": 25013,
    "POP2010": 1233,
    "POP2020": 1215,
    "POPCH10_20": -18,
    "_max": 533,
    "latitude": 42.19638889,
    "longitude": -72.99416667,
    "view": "",
    "chp": ""
  },
  {
    "elevation_name": "",
    "city": "TOLLAND",
    "elevation_ft": 1726,
    "elevation_type": "peak",
    "TOWN_ID": 297,
    "TYPE": "T",
    "COUNTY": "HAMPDEN",
    "FIPS_STCO": 25013,
    "POP2010": 485,
    "POP2020": 471,
    "POPCH10_20": -14,
    "_max": 526,
    "latitude": 42.13166667,
    "longitude": -73.02472222,
    "view": "",
    "chp": ""
  },
  {
    "elevation_name": "",
    "city": "TOLLAND",
    "elevation_ft": 1726,
    "elevation_type": "peak",
    "TOWN_ID": 297,
    "TYPE": "T",
    "COUNTY": "HAMPDEN",
    "FIPS_STCO": 25013,
    "POP2010": 485,
    "POP2020": 471,
    "POPCH10_20": -14,
    "_max": 526,
    "latitude": 42.13166667,
    "longitude": -73.025,
    "view": "",
    "chp": ""
  },
  {
    "elevation_name": "",
    "city": "TOLLAND",
    "elevation_ft": 1726,
    "elevation_type": "peak",
    "TOWN_ID": 297,
    "TYPE": "T",
    "COUNTY": "HAMPDEN",
    "FIPS_STCO": 25013,
    "POP2010": 485,
    "POP2020": 471,
    "POPCH10_20": -14,
    "_max": 526,
    "latitude": 42.13138889,
    "longitude": -73.02527778,
    "view": "",
    "chp": ""
  },
  {
    "elevation_name": "",
    "city": "WESTMINSTER",
    "elevation_ft": 1713,
    "elevation_type": "peak",
    "TOWN_ID": 332,
    "TYPE": "T",
    "COUNTY": "WORCESTER",
    "FIPS_STCO": 25027,
    "POP2010": 7277,
    "POP2020": 8213,
    "POPCH10_20": 936,
    "_max": 522,
    "latitude": 42.49277778,
    "longitude": -71.89833333,
    "view": "",
    "chp": ""
  },
  {
    "elevation_name": "",
    "city": "GOSHEN",
    "elevation_ft": 1703,
    "elevation_type": "peak",
    "TOWN_ID": 108,
    "TYPE": "T",
    "COUNTY": "HAMPSHIRE",
    "FIPS_STCO": 25015,
    "POP2010": 1054,
    "POP2020": 960,
    "POPCH10_20": -94,
    "_max": 519,
    "latitude": 42.46388889,
    "longitude": -72.78333333,
    "view": "",
    "chp": ""
  },
  {
    "elevation_name": "",
    "city": "GOSHEN",
    "elevation_ft": 1703,
    "elevation_type": "peak",
    "TOWN_ID": 108,
    "TYPE": "T",
    "COUNTY": "HAMPSHIRE",
    "FIPS_STCO": 25015,
    "POP2010": 1054,
    "POP2020": 960,
    "POPCH10_20": -94,
    "_max": 519,
    "latitude": 42.46444444,
    "longitude": -72.78333333,
    "view": "",
    "chp": ""
  },
  {
    "elevation_name": "",
    "city": "GOSHEN",
    "elevation_ft": 1703,
    "elevation_type": "peak",
    "TOWN_ID": 108,
    "TYPE": "T",
    "COUNTY": "HAMPSHIRE",
    "FIPS_STCO": 25015,
    "POP2010": 1054,
    "POP2020": 960,
    "POPCH10_20": -94,
    "_max": 519,
    "latitude": 42.46444444,
    "longitude": -72.78361111,
    "view": "",
    "chp": ""
  },
  {
    "elevation_name": "",
    "city": "GOSHEN",
    "elevation_ft": 1703,
    "elevation_type": "peak",
    "TOWN_ID": 108,
    "TYPE": "T",
    "COUNTY": "HAMPSHIRE",
    "FIPS_STCO": 25015,
    "POP2010": 1054,
    "POP2020": 960,
    "POPCH10_20": -94,
    "_max": 519,
    "latitude": 42.46416667,
    "longitude": -72.78333333,
    "view": "",
    "chp": ""
  },
  {
    "elevation_name": "",
    "city": "GOSHEN",
    "elevation_ft": 1703,
    "elevation_type": "peak",
    "TOWN_ID": 108,
    "TYPE": "T",
    "COUNTY": "HAMPSHIRE",
    "FIPS_STCO": 25015,
    "POP2010": 1054,
    "POP2020": 960,
    "POPCH10_20": -94,
    "_max": 519,
    "latitude": 42.46416667,
    "longitude": -72.78361111,
    "view": "",
    "chp": ""
  },
  {
    "elevation_name": "",
    "city": "WARWICK",
    "elevation_ft": 1631,
    "elevation_type": "peak",
    "TOWN_ID": 312,
    "TYPE": "T",
    "COUNTY": "FRANKLIN",
    "FIPS_STCO": 25011,
    "POP2010": 780,
    "POP2020": 780,
    "POPCH10_20": 0,
    "_max": 497,
    "latitude": 42.69194444,
    "longitude": -72.35694444,
    "view": "",
    "chp": ""
  },
  {
    "elevation_name": "Nutting Hill - Northeast slope",
    "city": "ASHBY",
    "elevation_ft": 1614,
    "elevation_type": "slope",
    "TOWN_ID": 12,
    "TYPE": "T",
    "COUNTY": "MIDDLESEX",
    "FIPS_STCO": 25017,
    "POP2010": 3074,
    "POP2020": 3193,
    "POPCH10_20": 119,
    "_max": 492,
    "latitude": 42.70666667,
    "longitude": -71.8975,
    "view": "",
    "chp": ""
  },
  {
    "elevation_name": "Massaemett Mountain",
    "city": "SHELBURNE",
    "elevation_ft": 1604,
    "elevation_type": "peak",
    "TOWN_ID": 268,
    "TYPE": "T",
    "COUNTY": "FRANKLIN",
    "FIPS_STCO": 25011,
    "POP2010": 1893,
    "POP2020": 1884,
    "POPCH10_20": -9,
    "_max": 489,
    "latitude": 42.60638889,
    "longitude": -72.71638889,
    "view": "",
    "chp": ""
  },
  {
    "elevation_name": "Mount Pisgah",
    "city": "WESTHAMPTON",
    "elevation_ft": 1562,
    "elevation_type": "peak",
    "TOWN_ID": 331,
    "TYPE": "T",
    "COUNTY": "HAMPSHIRE",
    "FIPS_STCO": 25015,
    "POP2010": 1607,
    "POP2020": 1622,
    "POPCH10_20": 15,
    "_max": 476,
    "latitude": 42.31694444,
    "longitude": -72.80888889,
    "view": "",
    "chp": ""
  },
  {
    "elevation_name": "Unnamed Point",
    "city": "CHESTERFIELD",
    "elevation_ft": 1545,
    "elevation_type": "peak",
    "TOWN_ID": 60,
    "TYPE": "T",
    "COUNTY": "HAMPSHIRE",
    "FIPS_STCO": 25015,
    "POP2010": 1222,
    "POP2020": 1186,
    "POPCH10_20": -36,
    "_max": 471,
    "latitude": 42.43444444,
    "longitude": -72.83888889,
    "view": "",
    "chp": ""
  },
  {
    "elevation_name": "West Ridge",
    "city": "CONWAY",
    "elevation_ft": 1539,
    "elevation_type": "peak",
    "TOWN_ID": 68,
    "TYPE": "T",
    "COUNTY": "FRANKLIN",
    "FIPS_STCO": 25011,
    "POP2010": 1897,
    "POP2020": 1761,
    "POPCH10_20": -136,
    "_max": 469,
    "latitude": 42.45472222,
    "longitude": -72.76472222,
    "view": "",
    "chp": ""
  },
  {
    "elevation_name": "Crag Mountain",
    "city": "NORTHFIELD",
    "elevation_ft": 1516,
    "elevation_type": "peak",
    "TOWN_ID": 217,
    "TYPE": "T",
    "COUNTY": "FRANKLIN",
    "FIPS_STCO": 25011,
    "POP2010": 3032,
    "POP2020": 2866,
    "POPCH10_20": -166,
    "_max": 462,
    "latitude": 42.6525,
    "longitude": -72.42277778,
    "view": "",
    "chp": ""
  },
  {
    "elevation_name": "Battlecock Hill",
    "city": "WILLIAMSBURG",
    "elevation_ft": 1516,
    "elevation_type": "peak",
    "TOWN_ID": 340,
    "TYPE": "T",
    "COUNTY": "HAMPSHIRE",
    "FIPS_STCO": 25015,
    "POP2010": 2482,
    "POP2020": 2504,
    "POPCH10_20": 22,
    "_max": 462,
    "latitude": 42.38444444,
    "longitude": -72.77305556,
    "view": "",
    "chp": ""
  },
  {
    "elevation_name": "Sweetman Mountain",
    "city": "GRANVILLE",
    "elevation_ft": 1486,
    "elevation_type": "peak",
    "TOWN_ID": 112,
    "TYPE": "T",
    "COUNTY": "HAMPDEN",
    "FIPS_STCO": 25013,
    "POP2010": 1566,
    "POP2020": 1538,
    "POPCH10_20": -28,
    "_max": 453,
    "latitude": 42.09527778,
    "longitude": -72.92583333,
    "view": "",
    "chp": ""
  },
  {
    "elevation_name": "Unnamed Point",
    "city": "HUNTINGTON",
    "elevation_ft": 1447,
    "elevation_type": "peak",
    "TOWN_ID": 143,
    "TYPE": "T",
    "COUNTY": "HAMPSHIRE",
    "FIPS_STCO": 25015,
    "POP2010": 2180,
    "POP2020": 2094,
    "POPCH10_20": -86,
    "_max": 441,
    "latitude": 42.29638889,
    "longitude": -72.81944444,
    "view": "",
    "chp": ""
  },
  {
    "elevation_name": "Asnebumskit Hill",
    "city": "PAXTON",
    "elevation_ft": 1437,
    "elevation_type": "peak",
    "TOWN_ID": 228,
    "TYPE": "T",
    "COUNTY": "WORCESTER",
    "FIPS_STCO": 25027,
    "POP2010": 4806,
    "POP2020": 5004,
    "POPCH10_20": 198,
    "_max": 438,
    "latitude": 42.30138889,
    "longitude": -71.89666667,
    "view": "",
    "chp": ""
  },
  {
    "elevation_name": "Dry Hill",
    "city": "MONTAGUE",
    "elevation_ft": 1414,
    "elevation_type": "peak",
    "TOWN_ID": 192,
    "TYPE": "T",
    "COUNTY": "FRANKLIN",
    "FIPS_STCO": 25011,
    "POP2010": 8437,
    "POP2020": 8580,
    "POPCH10_20": 143,
    "_max": 431,
    "latitude": 42.54388889,
    "longitude": -72.46777778,
    "view": "",
    "chp": ""
  },
  {
    "elevation_name": "Prospect Hill",
    "city": "PHILLIPSTON",
    "elevation_ft": 1394,
    "elevation_type": "peak",
    "TOWN_ID": 235,
    "TYPE": "T",
    "COUNTY": "WORCESTER",
    "FIPS_STCO": 25027,
    "POP2010": 1682,
    "POP2020": 1726,
    "POPCH10_20": 44,
    "_max": 425,
    "latitude": 42.545,
    "longitude": -72.17333333,
    "view": "",
    "chp": ""
  },
  {
    "elevation_name": "White Hill",
    "city": "ROYALSTON",
    "elevation_ft": 1375,
    "elevation_type": "peak",
    "TOWN_ID": 255,
    "TYPE": "T",
    "COUNTY": "WORCESTER",
    "FIPS_STCO": 25027,
    "POP2010": 1258,
    "POP2020": 1250,
    "POPCH10_20": -8,
    "_max": 419,
    "latitude": 42.71888889,
    "longitude": -72.27555556,
    "view": "",
    "chp": ""
  },
  {
    "elevation_name": "White Hill",
    "city": "ROYALSTON",
    "elevation_ft": 1375,
    "elevation_type": "peak",
    "TOWN_ID": 255,
    "TYPE": "T",
    "COUNTY": "WORCESTER",
    "FIPS_STCO": 25027,
    "POP2010": 1258,
    "POP2020": 1250,
    "POPCH10_20": -8,
    "_max": 419,
    "latitude": 42.71861111,
    "longitude": -72.27555556,
    "view": "",
    "chp": ""
  },
  {
    "elevation_name": "Unnamed Point",
    "city": "RUSSELL",
    "elevation_ft": 1368,
    "elevation_type": "peak",
    "TOWN_ID": 256,
    "TYPE": "T",
    "COUNTY": "HAMPDEN",
    "FIPS_STCO": 25013,
    "POP2010": 1775,
    "POP2020": 1643,
    "POPCH10_20": -132,
    "_max": 417,
    "latitude": 42.14,
    "longitude": -72.88527778,
    "view": "",
    "chp": ""
  },
  {
    "elevation_name": "Asnebumskit Hill slope",
    "city": "HOLDEN",
    "elevation_ft": 1362,
    "elevation_type": "peak",
    "TOWN_ID": 134,
    "TYPE": "T",
    "COUNTY": "WORCESTER",
    "FIPS_STCO": 25027,
    "POP2010": 17346,
    "POP2020": 19905,
    "POPCH10_20": 2559,
    "_max": 415,
    "latitude": 42.30388889,
    "longitude": -71.89555556,
    "view": "",
    "chp": ""
  },
  {
    "elevation_name": "Unnamed Point",
    "city": "PETERSHAM",
    "elevation_ft": 1362,
    "elevation_type": "peak",
    "TOWN_ID": 234,
    "TYPE": "T",
    "COUNTY": "WORCESTER",
    "FIPS_STCO": 25027,
    "POP2010": 1234,
    "POP2020": 1194,
    "POPCH10_20": -40,
    "_max": 415,
    "latitude": 42.54361111,
    "longitude": -72.18111111,
    "view": "",
    "chp": ""
  },
  {
    "elevation_name": "Canesto Hill",
    "city": "HUBBARDSTON",
    "elevation_ft": 1355,
    "elevation_type": "peak",
    "TOWN_ID": 140,
    "TYPE": "T",
    "COUNTY": "WORCESTER",
    "FIPS_STCO": 25027,
    "POP2010": 4382,
    "POP2020": 4328,
    "POPCH10_20": -54,
    "_max": 413,
    "latitude": 42.51583333,
    "longitude": -72.04944444,
    "view": "",
    "chp": ""
  },
  {
    "elevation_name": "Bungy Mountain",
    "city": "MONTGOMERY",
    "elevation_ft": 1355,
    "elevation_type": "peak",
    "TOWN_ID": 194,
    "TYPE": "T",
    "COUNTY": "HAMPDEN",
    "FIPS_STCO": 25013,
    "POP2010": 838,
    "POP2020": 819,
    "POPCH10_20": -19,
    "_max": 413,
    "latitude": 42.22638889,
    "longitude": -72.80888889,
    "view": "",
    "chp": ""
  },
  {
    "elevation_name": "Unnamed Point",
    "city": "LEYDEN",
    "elevation_ft": 1348,
    "elevation_type": "peak",
    "TOWN_ID": 156,
    "TYPE": "T",
    "COUNTY": "FRANKLIN",
    "FIPS_STCO": 25011,
    "POP2010": 711,
    "POP2020": 734,
    "POPCH10_20": 23,
    "_max": 411,
    "latitude": 42.71416667,
    "longitude": -72.63527778,
    "view": "",
    "chp": ""
  },
  {
    "elevation_name": "Orcutt Hill",
    "city": "WENDELL",
    "elevation_ft": 1342,
    "elevation_type": "peak",
    "TOWN_ID": 319,
    "TYPE": "T",
    "COUNTY": "FRANKLIN",
    "FIPS_STCO": 25011,
    "POP2010": 848,
    "POP2020": 924,
    "POPCH10_20": 76,
    "_max": 409,
    "latitude": 42.53194444,
    "longitude": -72.38055556,
    "view": "",
    "chp": ""
  },
  {
    "elevation_name": "Town Line Hill",
    "city": "WINCHENDON",
    "elevation_ft": 1342,
    "elevation_type": "peak",
    "TOWN_ID": 343,
    "TYPE": "T",
    "COUNTY": "WORCESTER",
    "FIPS_STCO": 25027,
    "POP2010": 10300,
    "POP2020": 10364,
    "POPCH10_20": 64,
    "_max": 409,
    "latitude": 42.6375,
    "longitude": -71.98583333,
    "view": "",
    "chp": ""
  },
  {
    "elevation_name": "Canesto Hill",
    "city": "TEMPLETON",
    "elevation_ft": 1335,
    "elevation_type": "peak",
    "TOWN_ID": 294,
    "TYPE": "T",
    "COUNTY": "WORCESTER",
    "FIPS_STCO": 25027,
    "POP2010": 8013,
    "POP2020": 8149,
    "POPCH10_20": 136,
    "_max": 407,
    "latitude": 42.51611111,
    "longitude": -72.04972222,
    "view": "",
    "chp": ""
  },
  {
    "elevation_name": "Unnamed Point",
    "city": "SHUTESBURY",
    "elevation_ft": 1326,
    "elevation_type": "peak",
    "TOWN_ID": 272,
    "TYPE": "T",
    "COUNTY": "FRANKLIN",
    "FIPS_STCO": 25011,
    "POP2010": 1771,
    "POP2020": 1717,
    "POPCH10_20": -54,
    "_max": 404,
    "latitude": 42.47638889,
    "longitude": -72.41694444,
    "view": "",
    "chp": ""
  },
  {
    "elevation_name": "Unnamed Point",
    "city": "NEW SALEM",
    "elevation_ft": 1322,
    "elevation_type": "peak",
    "TOWN_ID": 204,
    "TYPE": "T",
    "COUNTY": "FRANKLIN",
    "FIPS_STCO": 25011,
    "POP2010": 990,
    "POP2020": 983,
    "POPCH10_20": -7,
    "_max": 403,
    "latitude": 42.51111111,
    "longitude": -72.35333333,
    "view": "",
    "chp": ""
  },
  {
    "elevation_name": "Pratt Hill slope",
    "city": "ATHOL",
    "elevation_ft": 1309,
    "elevation_type": "peak",
    "TOWN_ID": 15,
    "TYPE": "T",
    "COUNTY": "WORCESTER",
    "FIPS_STCO": 25027,
    "POP2010": 11584,
    "POP2020": 11945,
    "POPCH10_20": 361,
    "_max": 399,
    "latitude": 42.5875,
    "longitude": -72.18027778,
    "view": "",
    "chp": ""
  },
  {
    "elevation_name": "Howe Hill",
    "city": "GARDNER",
    "elevation_ft": 1306,
    "elevation_type": "peak",
    "TOWN_ID": 103,
    "TYPE": "C",
    "COUNTY": "WORCESTER",
    "FIPS_STCO": 25027,
    "POP2010": 20228,
    "POP2020": 21287,
    "POPCH10_20": 1059,
    "_max": 398,
    "latitude": 42.60166667,
    "longitude": -71.98,
    "view": "",
    "chp": ""
  },
  {
    "elevation_name": "Brushy Mountain",
    "city": "LEVERETT",
    "elevation_ft": 1289,
    "elevation_type": "peak",
    "TOWN_ID": 154,
    "TYPE": "T",
    "COUNTY": "FRANKLIN",
    "FIPS_STCO": 25011,
    "POP2010": 1851,
    "POP2020": 1865,
    "POPCH10_20": 14,
    "_max": 393,
    "latitude": 42.47388889,
    "longitude": -72.47055556,
    "view": "",
    "chp": ""
  },
  {
    "elevation_name": "Rice Hill",
    "city": "RUTLAND",
    "elevation_ft": 1289,
    "elevation_type": "peak",
    "TOWN_ID": 257,
    "TYPE": "T",
    "COUNTY": "WORCESTER",
    "FIPS_STCO": 25027,
    "POP2010": 7973,
    "POP2020": 9049,
    "POPCH10_20": 1076,
    "_max": 393,
    "latitude": 42.38333333,
    "longitude": -71.93305556,
    "view": "",
    "chp": ""
  },
  {
    "elevation_name": "Mount Toby",
    "city": "SUNDERLAND",
    "elevation_ft": 1286,
    "elevation_type": "peak",
    "TOWN_ID": 289,
    "TYPE": "T",
    "COUNTY": "FRANKLIN",
    "FIPS_STCO": 25011,
    "POP2010": 3684,
    "POP2020": 3663,
    "POPCH10_20": -21,
    "_max": 392,
    "latitude": 42.48694444,
    "longitude": -72.53666667,
    "view": "",
    "chp": ""
  },
  {
    "elevation_name": "Unnamed Point",
    "city": "BARRE",
    "elevation_ft": 1280,
    "elevation_type": "peak",
    "TOWN_ID": 21,
    "TYPE": "T",
    "COUNTY": "WORCESTER",
    "FIPS_STCO": 25027,
    "POP2010": 5398,
    "POP2020": 5530,
    "POPCH10_20": 132,
    "_max": 390,
    "latitude": 42.45111111,
    "longitude": -72.12138889,
    "view": "",
    "chp": ""
  },
  {
    "elevation_name": "Pitt Hill",
    "city": "ORANGE",
    "elevation_ft": 1280,
    "elevation_type": "peak",
    "TOWN_ID": 223,
    "TYPE": "T",
    "COUNTY": "FRANKLIN",
    "FIPS_STCO": 25011,
    "POP2010": 7839,
    "POP2020": 7569,
    "POPCH10_20": -270,
    "_max": 390,
    "latitude": 42.55361111,
    "longitude": -72.3525,
    "view": "",
    "chp": ""
  },
  {
    "elevation_name": "Unnamed Point",
    "city": "PELHAM",
    "elevation_ft": 1276,
    "elevation_type": "peak",
    "TOWN_ID": 230,
    "TYPE": "T",
    "COUNTY": "HAMPSHIRE",
    "FIPS_STCO": 25015,
    "POP2010": 1321,
    "POP2020": 1280,
    "POPCH10_20": -41,
    "_max": 389,
    "latitude": 42.40666667,
    "longitude": -72.40833333,
    "view": "",
    "chp": ""
  },
  {
    "elevation_name": "Bald Mountain",
    "city": "BERNARDSTON",
    "elevation_ft": 1273,
    "elevation_type": "peak",
    "TOWN_ID": 29,
    "TYPE": "T",
    "COUNTY": "FRANKLIN",
    "FIPS_STCO": 25011,
    "POP2010": 2129,
    "POP2020": 2102,
    "POPCH10_20": -27,
    "_max": 388,
    "latitude": 42.70944444,
    "longitude": -72.53694444,
    "view": "",
    "chp": ""
  },
  {
    "elevation_name": "Mount Pisgah",
    "city": "WALES",
    "elevation_ft": 1270,
    "elevation_type": "peak",
    "TOWN_ID": 306,
    "TYPE": "T",
    "COUNTY": "HAMPDEN",
    "FIPS_STCO": 25013,
    "POP2010": 1838,
    "POP2020": 1832,
    "POPCH10_20": -6,
    "_max": 387,
    "latitude": 42.07888889,
    "longitude": -72.23833333,
    "view": "",
    "chp": ""
  },
  {
    "elevation_name": "Unnamed Point",
    "city": "ERVING",
    "elevation_ft": 1260,
    "elevation_type": "peak",
    "TOWN_ID": 91,
    "TYPE": "T",
    "COUNTY": "FRANKLIN",
    "FIPS_STCO": 25011,
    "POP2010": 1800,
    "POP2020": 1665,
    "POPCH10_20": -135,
    "_max": 384,
    "latitude": 42.63111111,
    "longitude": -72.38416667,
    "view": "",
    "chp": ""
  },
  {
    "elevation_name": "Peaked Mountain",
    "city": "MONSON",
    "elevation_ft": 1237,
    "elevation_type": "peak",
    "TOWN_ID": 191,
    "TYPE": "T",
    "COUNTY": "HAMPDEN",
    "FIPS_STCO": 25013,
    "POP2010": 8560,
    "POP2020": 8150,
    "POPCH10_20": -410,
    "_max": 377,
    "latitude": 42.04722222,
    "longitude": -72.34,
    "view": "TRUE",
    "chp": ""
  },
  {
    "elevation_name": "Unnamed Point",
    "city": "BRIMFIELD",
    "elevation_ft": 1221,
    "elevation_type": "peak",
    "TOWN_ID": 43,
    "TYPE": "T",
    "COUNTY": "HAMPDEN",
    "FIPS_STCO": 25013,
    "POP2010": 3609,
    "POP2020": 3694,
    "POPCH10_20": 85,
    "_max": 372,
    "latitude": 42.10777778,
    "longitude": -72.24166667,
    "view": "",
    "chp": ""
  },
  {
    "elevation_name": "Brown Hill",
    "city": "FITCHBURG",
    "elevation_ft": 1221,
    "elevation_type": "peak",
    "TOWN_ID": 97,
    "TYPE": "C",
    "COUNTY": "WORCESTER",
    "FIPS_STCO": 25027,
    "POP2010": 40318,
    "POP2020": 41946,
    "POPCH10_20": 1628,
    "_max": 372,
    "latitude": 42.62027778,
    "longitude": -71.84527778,
    "view": "",
    "chp": ""
  },
  {
    "elevation_name": "Ragged Hill",
    "city": "WEST BROOKFIELD",
    "elevation_ft": 1217,
    "elevation_type": "peak",
    "TOWN_ID": 323,
    "TYPE": "T",
    "COUNTY": "WORCESTER",
    "FIPS_STCO": 25027,
    "POP2010": 3701,
    "POP2020": 3833,
    "POPCH10_20": 132,
    "_max": 371,
    "latitude": 42.28888889,
    "longitude": -72.18333333,
    "view": "",
    "chp": ""
  },
  {
    "elevation_name": "Elliott Hill",
    "city": "LEICESTER",
    "elevation_ft": 1214,
    "elevation_type": "peak",
    "TOWN_ID": 151,
    "TYPE": "T",
    "COUNTY": "WORCESTER",
    "FIPS_STCO": 25027,
    "POP2010": 10970,
    "POP2020": 11087,
    "POPCH10_20": 117,
    "_max": 370,
    "latitude": 42.28027778,
    "longitude": -71.92,
    "view": "",
    "chp": ""
  },
  {
    "elevation_name": "Mount Tom",
    "city": "HOLYOKE",
    "elevation_ft": 1194,
    "elevation_type": "peak",
    "TOWN_ID": 137,
    "TYPE": "C",
    "COUNTY": "HAMPDEN",
    "FIPS_STCO": 25013,
    "POP2010": 39880,
    "POP2020": 38238,
    "POPCH10_20": -1642,
    "_max": 364,
    "latitude": 42.24138889,
    "longitude": -72.64805556,
    "view": "",
    "chp": ""
  },
  {
    "elevation_name": "Pomeroy Mountain",
    "city": "SOUTHAMPTON",
    "elevation_ft": 1191,
    "elevation_type": "peak",
    "TOWN_ID": 276,
    "TYPE": "T",
    "COUNTY": "HAMPSHIRE",
    "FIPS_STCO": 25015,
    "POP2010": 5792,
    "POP2020": 6224,
    "POPCH10_20": 432,
    "_max": 363,
    "latitude": 42.25944444,
    "longitude": -72.74833333,
    "view": "",
    "chp": ""
  },
  {
    "elevation_name": "Coys Hill",
    "city": "WARREN",
    "elevation_ft": 1191,
    "elevation_type": "peak",
    "TOWN_ID": 311,
    "TYPE": "T",
    "COUNTY": "WORCESTER",
    "FIPS_STCO": 25027,
    "POP2010": 5135,
    "POP2020": 4975,
    "POPCH10_20": -160,
    "_max": 363,
    "latitude": 42.24527778,
    "longitude": -72.20666667,
    "view": "",
    "chp": ""
  },
  {
    "elevation_name": "Unnamed Point",
    "city": "HOLLAND",
    "elevation_ft": 1184,
    "elevation_type": "peak",
    "TOWN_ID": 135,
    "TYPE": "T",
    "COUNTY": "HAMPDEN",
    "FIPS_STCO": 25013,
    "POP2010": 2481,
    "POP2020": 2603,
    "POPCH10_20": 122,
    "_max": 361,
    "latitude": 42.04277778,
    "longitude": -72.195,
    "view": "",
    "chp": ""
  },
  {
    "elevation_name": "Unnamed Point",
    "city": "HARDWICK",
    "elevation_ft": 1181,
    "elevation_type": "peak",
    "TOWN_ID": 124,
    "TYPE": "T",
    "COUNTY": "WORCESTER",
    "FIPS_STCO": 25027,
    "POP2010": 2990,
    "POP2020": 2667,
    "POPCH10_20": -323,
    "_max": 360,
    "latitude": 42.39055556,
    "longitude": -72.16777778,
    "view": "",
    "chp": ""
  },
  {
    "elevation_name": "Tufts Hill",
    "city": "NEW BRAINTREE",
    "elevation_ft": 1181,
    "elevation_type": "peak",
    "TOWN_ID": 202,
    "TYPE": "T",
    "COUNTY": "WORCESTER",
    "FIPS_STCO": 25027,
    "POP2010": 999,
    "POP2020": 996,
    "POPCH10_20": -3,
    "_max": 360,
    "latitude": 42.31722222,
    "longitude": -72.08472222,
    "view": "",
    "chp": ""
  },
  {
    "elevation_name": "Unnamed Point",
    "city": "WARE",
    "elevation_ft": 1178,
    "elevation_type": "peak",
    "TOWN_ID": 309,
    "TYPE": "T",
    "COUNTY": "HAMPSHIRE",
    "FIPS_STCO": 25015,
    "POP2010": 9872,
    "POP2020": 10066,
    "POPCH10_20": 194,
    "_max": 359,
    "latitude": 42.24805556,
    "longitude": -72.21111111,
    "view": "",
    "chp": ""
  },
  {
    "elevation_name": "South Monoosnoc Hill",
    "city": "LEOMINSTER",
    "elevation_ft": 1171,
    "elevation_type": "peak",
    "TOWN_ID": 153,
    "TYPE": "C",
    "COUNTY": "WORCESTER",
    "FIPS_STCO": 25027,
    "POP2010": 40759,
    "POP2020": 43782,
    "POPCH10_20": 3023,
    "_max": 357,
    "latitude": 42.52527778,
    "longitude": -71.80027778,
    "view": "",
    "chp": ""
  },
  {
    "elevation_name": "Unnamed Point",
    "city": "WHATELY",
    "elevation_ft": 1168,
    "elevation_type": "slope",
    "TOWN_ID": 337,
    "TYPE": "T",
    "COUNTY": "FRANKLIN",
    "FIPS_STCO": 25011,
    "POP2010": 1496,
    "POP2020": 1607,
    "POPCH10_20": 111,
    "_max": 356,
    "latitude": 42.44527778,
    "longitude": -72.70138889,
    "view": "",
    "chp": ""
  },
  {
    "elevation_name": "Colonels Mountain",
    "city": "PALMER",
    "elevation_ft": 1165,
    "elevation_type": "peak",
    "TOWN_ID": 227,
    "TYPE": "TC",
    "COUNTY": "HAMPDEN",
    "FIPS_STCO": 25013,
    "POP2010": 12140,
    "POP2020": 12448,
    "POPCH10_20": 308,
    "_max": 355,
    "latitude": 42.23638889,
    "longitude": -72.2325,
    "view": "",
    "chp": ""
  },
  {
    "elevation_name": "East Hill",
    "city": "BELCHERTOWN",
    "elevation_ft": 1158,
    "elevation_type": "peak",
    "TOWN_ID": 24,
    "TYPE": "T",
    "COUNTY": "HAMPSHIRE",
    "FIPS_STCO": 25015,
    "POP2010": 14649,
    "POP2020": 15350,
    "POPCH10_20": 701,
    "_max": 353,
    "latitude": 42.33444444,
    "longitude": -72.3925,
    "view": "",
    "chp": ""
  },
  {
    "elevation_name": "Unnamed Point",
    "city": "OAKHAM",
    "elevation_ft": 1152,
    "elevation_type": "peak",
    "TOWN_ID": 222,
    "TYPE": "T",
    "COUNTY": "WORCESTER",
    "FIPS_STCO": 25027,
    "POP2010": 1902,
    "POP2020": 1851,
    "POPCH10_20": -51,
    "_max": 351,
    "latitude": 42.35527778,
    "longitude": -72.04777778,
    "view": "",
    "chp": ""
  },
  {
    "elevation_name": "Drake Mountain",
    "city": "WESTFIELD",
    "elevation_ft": 1142,
    "elevation_type": "peak",
    "TOWN_ID": 329,
    "TYPE": "C",
    "COUNTY": "HAMPDEN",
    "FIPS_STCO": 25013,
    "POP2010": 41094,
    "POP2020": 40834,
    "POPCH10_20": -260,
    "_max": 348,
    "latitude": 42.10444444,
    "longitude": -72.83722222,
    "view": "",
    "chp": ""
  },
  {
    "elevation_name": "Unnamed Point",
    "city": "EASTHAMPTON",
    "elevation_ft": 1135,
    "elevation_type": "peak",
    "TOWN_ID": 87,
    "TYPE": "C",
    "COUNTY": "HAMPSHIRE",
    "FIPS_STCO": 25015,
    "POP2010": 16053,
    "POP2020": 16211,
    "POPCH10_20": 158,
    "_max": 346,
    "latitude": 42.25111111,
    "longitude": -72.64555556,
    "view": "",
    "chp": ""
  },
  {
    "elevation_name": "Unnamed Point",
    "city": "NORTH BROOKFIELD",
    "elevation_ft": 1135,
    "elevation_type": "peak",
    "TOWN_ID": 212,
    "TYPE": "T",
    "COUNTY": "WORCESTER",
    "FIPS_STCO": 25027,
    "POP2010": 4680,
    "POP2020": 4735,
    "POPCH10_20": 55,
    "_max": 346,
    "latitude": 42.29138889,
    "longitude": -72.08416667,
    "view": "",
    "chp": ""
  },
  {
    "elevation_name": "Unnamed Point",
    "city": "STURBRIDGE",
    "elevation_ft": 1125,
    "elevation_type": "peak",
    "TOWN_ID": 287,
    "TYPE": "T",
    "COUNTY": "WORCESTER",
    "FIPS_STCO": 25027,
    "POP2010": 9268,
    "POP2020": 9867,
    "POPCH10_20": 599,
    "_max": 343,
    "latitude": 42.07611111,
    "longitude": -72.13111111,
    "view": "",
    "chp": ""
  },
  {
    "elevation_name": "Pine Mountain",
    "city": "HAMPDEN",
    "elevation_ft": 1119,
    "elevation_type": "peak",
    "TOWN_ID": 120,
    "TYPE": "T",
    "COUNTY": "HAMPDEN",
    "FIPS_STCO": 25013,
    "POP2010": 5139,
    "POP2020": 4966,
    "POPCH10_20": -173,
    "_max": 341,
    "latitude": 42.04305556,
    "longitude": -72.40277778,
    "view": "",
    "chp": ""
  },
  {
    "elevation_name": "Moose Hill",
    "city": "SPENCER",
    "elevation_ft": 1112,
    "elevation_type": "peak",
    "TOWN_ID": 280,
    "TYPE": "T",
    "COUNTY": "WORCESTER",
    "FIPS_STCO": 25027,
    "POP2010": 11688,
    "POP2020": 11992,
    "POPCH10_20": 304,
    "_max": 339,
    "latitude": 42.27777778,
    "longitude": -71.95972222,
    "view": "",
    "chp": ""
  },
  {
    "elevation_name": "Mount Norwottock",
    "city": "AMHERST",
    "elevation_ft": 1089,
    "elevation_type": "peak",
    "TOWN_ID": 8,
    "TYPE": "T",
    "COUNTY": "HAMPSHIRE",
    "FIPS_STCO": 25015,
    "POP2010": 37819,
    "POP2020": 39263,
    "POPCH10_20": 1444,
    "_max": 332,
    "latitude": 42.30527778,
    "longitude": -72.51138889,
    "view": "T",
    "chp": ""
  },
  {
    "elevation_name": "Mount Norwottock",
    "city": "GRANBY",
    "elevation_ft": 1089,
    "elevation_type": "peak",
    "TOWN_ID": 111,
    "TYPE": "T",
    "COUNTY": "HAMPSHIRE",
    "FIPS_STCO": 25015,
    "POP2010": 6240,
    "POP2020": 6110,
    "POPCH10_20": -130,
    "_max": 332,
    "latitude": 42.30527778,
    "longitude": -72.51027778,
    "view": "",
    "chp": ""
  },
  {
    "elevation_name": "Drake Mountain slope",
    "city": "SOUTHWICK",
    "elevation_ft": 1089,
    "elevation_type": "slope",
    "TOWN_ID": 279,
    "TYPE": "T",
    "COUNTY": "HAMPDEN",
    "FIPS_STCO": 25013,
    "POP2010": 9502,
    "POP2020": 9232,
    "POPCH10_20": -270,
    "_max": 332,
    "latitude": 42.10194444,
    "longitude": -72.83694444,
    "view": "",
    "chp": ""
  },
  {
    "elevation_name": "Little Mugget Hill",
    "city": "CHARLTON",
    "elevation_ft": 1083,
    "elevation_type": "peak",
    "TOWN_ID": 54,
    "TYPE": "T",
    "COUNTY": "WORCESTER",
    "FIPS_STCO": 25027,
    "POP2010": 12981,
    "POP2020": 13315,
    "POPCH10_20": 334,
    "_max": 330,
    "latitude": 42.16833333,
    "longitude": -71.97166667,
    "view": "",
    "chp": ""
  },
  {
    "elevation_name": "Eddy Hill",
    "city": "WORCESTER",
    "elevation_ft": 1063,
    "elevation_type": "peak",
    "TOWN_ID": 348,
    "TYPE": "C",
    "COUNTY": "WORCESTER",
    "FIPS_STCO": 25027,
    "POP2010": 181045,
    "POP2020": 206518,
    "POPCH10_20": 25473,
    "_max": 324,
    "latitude": 42.28111111,
    "longitude": -71.88388889,
    "view": "",
    "chp": ""
  },
  {
    "elevation_name": "Doane Hill",
    "city": "EAST BROOKFIELD",
    "elevation_ft": 1050,
    "elevation_type": "peak",
    "TOWN_ID": 84,
    "TYPE": "T",
    "COUNTY": "WORCESTER",
    "FIPS_STCO": 25027,
    "POP2010": 2183,
    "POP2020": 2224,
    "POPCH10_20": 41,
    "_max": 320,
    "latitude": 42.17777778,
    "longitude": -72.01916667,
    "view": "",
    "chp": ""
  },
  {
    "elevation_name": "Unnamed Point",
    "city": "SOUTHBRIDGE",
    "elevation_ft": 1043,
    "elevation_type": "peak",
    "TOWN_ID": 278,
    "TYPE": "TC",
    "COUNTY": "WORCESTER",
    "FIPS_STCO": 25027,
    "POP2010": 16719,
    "POP2020": 17740,
    "POPCH10_20": 1021,
    "_max": 318,
    "latitude": 42.03277778,
    "longitude": -72.07555556,
    "view": "",
    "chp": ""
  },
  {
    "elevation_name": "Rocky Hill slope",
    "city": "STERLING",
    "elevation_ft": 1030,
    "elevation_type": "slope",
    "TOWN_ID": 282,
    "TYPE": "T",
    "COUNTY": "WORCESTER",
    "FIPS_STCO": 25027,
    "POP2010": 7808,
    "POP2020": 7985,
    "POPCH10_20": 177,
    "_max": 314,
    "latitude": 42.48666667,
    "longitude": -71.79777778,
    "view": "",
    "chp": ""
  },
  {
    "elevation_name": "Mount Hitchcock",
    "city": "SOUTH HADLEY",
    "elevation_ft": 1017,
    "elevation_type": "peak",
    "TOWN_ID": 275,
    "TYPE": "T",
    "COUNTY": "HAMPSHIRE",
    "FIPS_STCO": 25015,
    "POP2010": 17514,
    "POP2020": 18150,
    "POPCH10_20": 636,
    "_max": 310,
    "latitude": 42.30555556,
    "longitude": -72.54555556,
    "view": "",
    "chp": ""
  },
  {
    "elevation_name": "Mount Hitchcock",
    "city": "HADLEY",
    "elevation_ft": 1004,
    "elevation_type": "peak",
    "TOWN_ID": 117,
    "TYPE": "T",
    "COUNTY": "HAMPSHIRE",
    "FIPS_STCO": 25015,
    "POP2010": 5250,
    "POP2020": 5325,
    "POPCH10_20": 75,
    "_max": 306,
    "latitude": 42.30583333,
    "longitude": -72.54527778,
    "view": "",
    "chp": ""
  },
  {
    "elevation_name": "Unnamed Point",
    "city": "BROOKFIELD",
    "elevation_ft": 994,
    "elevation_type": "peak",
    "TOWN_ID": 45,
    "TYPE": "T",
    "COUNTY": "WORCESTER",
    "FIPS_STCO": 25027,
    "POP2010": 3390,
    "POP2020": 3439,
    "POPCH10_20": 49,
    "_max": 303,
    "latitude": 42.18055556,
    "longitude": -72.14444444,
    "view": "",
    "chp": ""
  },
  {
    "elevation_name": "Arthurs Seat",
    "city": "DEERFIELD",
    "elevation_ft": 965,
    "elevation_type": "peak",
    "TOWN_ID": 74,
    "TYPE": "T",
    "COUNTY": "FRANKLIN",
    "FIPS_STCO": 25011,
    "POP2010": 5125,
    "POP2020": 5090,
    "POPCH10_20": -35,
    "_max": 294,
    "latitude": 42.56277778,
    "longitude": -72.64277778,
    "view": "",
    "chp": ""
  },
  {
    "elevation_name": "Mount Chapin",
    "city": "WILBRAHAM",
    "elevation_ft": 945,
    "elevation_type": "peak",
    "TOWN_ID": 339,
    "TYPE": "T",
    "COUNTY": "HAMPDEN",
    "FIPS_STCO": 25013,
    "POP2010": 14219,
    "POP2020": 14613,
    "POPCH10_20": 394,
    "_max": 288,
    "latitude": 42.12194444,
    "longitude": -72.40861111,
    "view": "",
    "chp": ""
  },
  {
    "elevation_name": "Wood Hill",
    "city": "WEBSTER",
    "elevation_ft": 922,
    "elevation_type": "peak",
    "TOWN_ID": 316,
    "TYPE": "T",
    "COUNTY": "WORCESTER",
    "FIPS_STCO": 25027,
    "POP2010": 16767,
    "POP2020": 17776,
    "POPCH10_20": 1009,
    "_max": 281,
    "latitude": 42.04833333,
    "longitude": -71.81527778,
    "view": "",
    "chp": ""
  },
  {
    "elevation_name": "Unnamed Point",
    "city": "AUBURN",
    "elevation_ft": 912,
    "elevation_type": "peak",
    "TOWN_ID": 17,
    "TYPE": "T",
    "COUNTY": "WORCESTER",
    "FIPS_STCO": 25027,
    "POP2010": 16188,
    "POP2020": 16889,
    "POPCH10_20": 701,
    "_max": 278,
    "latitude": 42.20055556,
    "longitude": -71.88444444,
    "view": "",
    "chp": ""
  },
  {
    "elevation_name": "Wood Hill",
    "city": "DOUGLAS",
    "elevation_ft": 912,
    "elevation_type": "peak",
    "TOWN_ID": 77,
    "TYPE": "T",
    "COUNTY": "WORCESTER",
    "FIPS_STCO": 25027,
    "POP2010": 8471,
    "POP2020": 8983,
    "POPCH10_20": 512,
    "_max": 278,
    "latitude": 42.04833333,
    "longitude": -71.81361111,
    "view": "",
    "chp": ""
  },
  {
    "elevation_name": "Unnamed Point",
    "city": "GREENFIELD",
    "elevation_ft": 909,
    "elevation_type": "peak",
    "TOWN_ID": 114,
    "TYPE": "C",
    "COUNTY": "FRANKLIN",
    "FIPS_STCO": 25011,
    "POP2010": 17456,
    "POP2020": 17768,
    "POPCH10_20": 312,
    "_max": 277,
    "latitude": 42.60361111,
    "longitude": -72.64305556,
    "view": "",
    "chp": ""
  },
  {
    "elevation_name": "Goat Hill",
    "city": "OXFORD",
    "elevation_ft": 899,
    "elevation_type": "peak",
    "TOWN_ID": 226,
    "TYPE": "T",
    "COUNTY": "WORCESTER",
    "FIPS_STCO": 25027,
    "POP2010": 13709,
    "POP2020": 13347,
    "POPCH10_20": -362,
    "_max": 274,
    "latitude": 42.10333333,
    "longitude": -71.81361111,
    "view": "",
    "chp": ""
  },
  {
    "elevation_name": "Unnamed Point",
    "city": "NORTHAMPTON",
    "elevation_ft": 892,
    "elevation_type": "peak",
    "TOWN_ID": 214,
    "TYPE": "C",
    "COUNTY": "HAMPSHIRE",
    "FIPS_STCO": 25015,
    "POP2010": 28549,
    "POP2020": 29571,
    "POPCH10_20": 1022,
    "_max": 272,
    "latitude": 42.35083333,
    "longitude": -72.72694444,
    "view": "",
    "chp": ""
  },
  {
    "elevation_name": "Malden Hill",
    "city": "WEST BOYLSTON",
    "elevation_ft": 883,
    "elevation_type": "peak",
    "TOWN_ID": 321,
    "TYPE": "T",
    "COUNTY": "WORCESTER",
    "FIPS_STCO": 25027,
    "POP2010": 7669,
    "POP2020": 7877,
    "POPCH10_20": 208,
    "_max": 269,
    "latitude": 42.36305556,
    "longitude": -71.80916667,
    "view": "",
    "chp": ""
  },
  {
    "elevation_name": "Unnamed Point",
    "city": "DUDLEY",
    "elevation_ft": 863,
    "elevation_type": "peak",
    "TOWN_ID": 80,
    "TYPE": "T",
    "COUNTY": "WORCESTER",
    "FIPS_STCO": 25027,
    "POP2010": 11390,
    "POP2020": 11921,
    "POPCH10_20": 531,
    "_max": 263,
    "latitude": 42.07361111,
    "longitude": -71.97027778,
    "view": "",
    "chp": ""
  },
  {
    "elevation_name": "Whittier Hill",
    "city": "SUTTON",
    "elevation_ft": 860,
    "elevation_type": "peak",
    "TOWN_ID": 290,
    "TYPE": "T",
    "COUNTY": "WORCESTER",
    "FIPS_STCO": 25027,
    "POP2010": 8963,
    "POP2020": 9357,
    "POPCH10_20": 394,
    "_max": 262,
    "latitude": 42.11888889,
    "longitude": -71.80833333,
    "view": "",
    "chp": ""
  },
  {
    "elevation_name": "Unnamed Point",
    "city": "MILLBURY",
    "elevation_ft": 850,
    "elevation_type": "peak",
    "TOWN_ID": 186,
    "TYPE": "T",
    "COUNTY": "WORCESTER",
    "FIPS_STCO": 25027,
    "POP2010": 13261,
    "POP2020": 13831,
    "POPCH10_20": 570,
    "_max": 259,
    "latitude": 42.14694444,
    "longitude": -71.82527778,
    "view": "",
    "chp": ""
  },
  {
    "elevation_name": "Unnamed Point",
    "city": "HATFIELD",
    "elevation_ft": 846,
    "elevation_type": "peak",
    "TOWN_ID": 127,
    "TYPE": "T",
    "COUNTY": "HAMPSHIRE",
    "FIPS_STCO": 25015,
    "POP2010": 3279,
    "POP2020": 3352,
    "POPCH10_20": 73,
    "_max": 258,
    "latitude": 42.39611111,
    "longitude": -72.66666667,
    "view": "",
    "chp": ""
  },
  {
    "elevation_name": "Pisgah Mountain",
    "city": "GILL",
    "elevation_ft": 837,
    "elevation_type": "peak",
    "TOWN_ID": 106,
    "TYPE": "T",
    "COUNTY": "FRANKLIN",
    "FIPS_STCO": 25011,
    "POP2010": 1500,
    "POP2020": 1551,
    "POPCH10_20": 51,
    "_max": 255,
    "latitude": 42.62,
    "longitude": -72.52305556,
    "view": "",
    "chp": ""
  },
  {
    "elevation_name": "Unnamed Point",
    "city": "TOWNSEND",
    "elevation_ft": 787,
    "elevation_type": "peak",
    "TOWN_ID": 299,
    "TYPE": "T",
    "COUNTY": "MIDDLESEX",
    "FIPS_STCO": 25017,
    "POP2010": 8926,
    "POP2020": 9127,
    "POPCH10_20": 201,
    "_max": 240,
    "latitude": 42.63777778,
    "longitude": -71.75333333,
    "view": "",
    "chp": ""
  },
  {
    "elevation_name": "Unnamed Point",
    "city": "LUNENBURG",
    "elevation_ft": 784,
    "elevation_type": "peak",
    "TOWN_ID": 162,
    "TYPE": "T",
    "COUNTY": "WORCESTER",
    "FIPS_STCO": 25027,
    "POP2010": 10086,
    "POP2020": 11782,
    "POPCH10_20": 1696,
    "_max": 239,
    "latitude": 42.6375,
    "longitude": -71.75305556,
    "view": "",
    "chp": ""
  },
  {
    "elevation_name": "Meeting House Hill",
    "city": "SHREWSBURY",
    "elevation_ft": 774,
    "elevation_type": "peak",
    "TOWN_ID": 271,
    "TYPE": "T",
    "COUNTY": "WORCESTER",
    "FIPS_STCO": 25027,
    "POP2010": 35608,
    "POP2020": 38325,
    "POPCH10_20": 2717,
    "_max": 236,
    "latitude": 42.30722222,
    "longitude": -71.71361111,
    "view": "",
    "chp": ""
  },
  {
    "elevation_name": "Unnamed Point",
    "city": "BOYLSTON",
    "elevation_ft": 761,
    "elevation_type": "peak",
    "TOWN_ID": 39,
    "TYPE": "T",
    "COUNTY": "WORCESTER",
    "FIPS_STCO": 25027,
    "POP2010": 4355,
    "POP2020": 4849,
    "POPCH10_20": 494,
    "_max": 232,
    "latitude": 42.3325,
    "longitude": -71.70444444,
    "view": "",
    "chp": ""
  },
  {
    "elevation_name": "Unnamed Point",
    "city": "LUDLOW",
    "elevation_ft": 742,
    "elevation_type": "peak",
    "TOWN_ID": 161,
    "TYPE": "T",
    "COUNTY": "HAMPDEN",
    "FIPS_STCO": 25013,
    "POP2010": 21103,
    "POP2020": 21002,
    "POPCH10_20": -101,
    "_max": 226,
    "latitude": 42.22666667,
    "longitude": -72.45166667,
    "view": "",
    "chp": ""
  },
  {
    "elevation_name": "Mount Pisgah",
    "city": "NORTHBOROUGH",
    "elevation_ft": 732,
    "elevation_type": "peak",
    "TOWN_ID": 215,
    "TYPE": "T",
    "COUNTY": "WORCESTER",
    "FIPS_STCO": 25027,
    "POP2010": 14155,
    "POP2020": 15741,
    "POPCH10_20": 1586,
    "_max": 223,
    "latitude": 42.36027778,
    "longitude": -71.66111111,
    "view": "",
    "chp": ""
  },
  {
    "elevation_name": "Fay Mountain",
    "city": "WESTBOROUGH",
    "elevation_ft": 719,
    "elevation_type": "peak",
    "TOWN_ID": 328,
    "TYPE": "T",
    "COUNTY": "WORCESTER",
    "FIPS_STCO": 25027,
    "POP2010": 18272,
    "POP2020": 21567,
    "POPCH10_20": 3295,
    "_max": 219,
    "latitude": 42.24111111,
    "longitude": -71.62861111,
    "view": "",
    "chp": ""
  },
  {
    "elevation_name": "Unnamed Point",
    "city": "WEST SPRINGFIELD",
    "elevation_ft": 705,
    "elevation_type": "peak",
    "TOWN_ID": 325,
    "TYPE": "TC",
    "COUNTY": "HAMPDEN",
    "FIPS_STCO": 25013,
    "POP2010": 28391,
    "POP2020": 28835,
    "POPCH10_20": 444,
    "_max": 215,
    "latitude": 42.155,
    "longitude": -72.685,
    "view": "T",
    "chp": ""
  },
  {
    "elevation_name": "Unnamed Point",
    "city": "WEST SPRINGFIELD",
    "elevation_ft": 705,
    "elevation_type": "peak",
    "TOWN_ID": 325,
    "TYPE": "TC",
    "COUNTY": "HAMPDEN",
    "FIPS_STCO": 25013,
    "POP2010": 28391,
    "POP2020": 28835,
    "POPCH10_20": 444,
    "_max": 215,
    "latitude": 42.15444444,
    "longitude": -72.685,
    "view": "",
    "chp": ""
  },
  {
    "elevation_name": "Mount Pisgah",
    "city": "BERLIN",
    "elevation_ft": 689,
    "elevation_type": "peak",
    "TOWN_ID": 28,
    "TYPE": "T",
    "COUNTY": "WORCESTER",
    "FIPS_STCO": 25027,
    "POP2010": 2866,
    "POP2020": 3158,
    "POPCH10_20": 292,
    "_max": 210,
    "latitude": 42.3625,
    "longitude": -71.66083333,
    "view": "",
    "chp": ""
  },
  {
    "elevation_name": "Unnamed Point",
    "city": "BOLTON",
    "elevation_ft": 689,
    "elevation_type": "peak",
    "TOWN_ID": 34,
    "TYPE": "T",
    "COUNTY": "WORCESTER",
    "FIPS_STCO": 25027,
    "POP2010": 4897,
    "POP2020": 5665,
    "POPCH10_20": 768,
    "_max": 210,
    "latitude": 42.42166667,
    "longitude": -71.63444444,
    "view": "",
    "chp": ""
  },
  {
    "elevation_name": "Unnamed Point",
    "city": "UPTON",
    "elevation_ft": 676,
    "elevation_type": "peak",
    "TOWN_ID": 303,
    "TYPE": "T",
    "COUNTY": "WORCESTER",
    "FIPS_STCO": 25027,
    "POP2010": 7542,
    "POP2020": 8000,
    "POPCH10_20": 458,
    "_max": 206,
    "latitude": 42.19805556,
    "longitude": -71.63805556,
    "view": "",
    "chp": ""
  },
  {
    "elevation_name": "George Hill",
    "city": "GRAFTON",
    "elevation_ft": 669,
    "elevation_type": "peak",
    "TOWN_ID": 110,
    "TYPE": "T",
    "COUNTY": "WORCESTER",
    "FIPS_STCO": 25027,
    "POP2010": 17765,
    "POP2020": 19664,
    "POPCH10_20": 1899,
    "_max": 204,
    "latitude": 42.21,
    "longitude": -71.67361111,
    "view": "",
    "chp": ""
  },
  {
    "elevation_name": "Oak Hill (Harvard)",
    "city": "HARVARD",
    "elevation_ft": 656,
    "elevation_type": "peak",
    "TOWN_ID": 125,
    "TYPE": "T",
    "COUNTY": "WORCESTER",
    "FIPS_STCO": 25027,
    "POP2010": 6520,
    "POP2020": 6851,
    "POPCH10_20": 331,
    "_max": 200,
    "latitude": 42.50444444,
    "longitude": -71.55861111,
    "view": "",
    "chp": ""
  },
  {
    "elevation_name": "Unnamed Point",
    "city": "AGAWAM",
    "elevation_ft": 653,
    "elevation_type": "peak",
    "TOWN_ID": 5,
    "TYPE": "TC",
    "COUNTY": "HAMPDEN",
    "FIPS_STCO": 25013,
    "POP2010": 28438,
    "POP2020": 28692,
    "POPCH10_20": 254,
    "_max": 199,
    "latitude": 42.085,
    "longitude": -72.70416667,
    "view": "",
    "chp": ""
  },
  {
    "elevation_name": "Great Blue Hill",
    "city": "CANTON/MILTON",
    "elevation_ft": 637,
    "elevation_type": "peak",
    "TOWN_ID": 50,
    "TYPE": "T",
    "COUNTY": "NORFOLK",
    "FIPS_STCO": 25021,
    "POP2010": 21561,
    "POP2020": 24370,
    "POPCH10_20": 2809,
    "_max": 194,
    "latitude": 42.21194444,
    "longitude": -71.11416667,
    "view": "T",
    "chp": "T"
  },
  {
    "elevation_name": "Unnamed Point",
    "city": "UXBRIDGE",
    "elevation_ft": 620,
    "elevation_type": "peak",
    "TOWN_ID": 304,
    "TYPE": "T",
    "COUNTY": "WORCESTER",
    "FIPS_STCO": 25027,
    "POP2010": 13457,
    "POP2020": 14162,
    "POPCH10_20": 705,
    "_max": 189,
    "latitude": 42.01888889,
    "longitude": -71.65611111,
    "view": "",
    "chp": ""
  },
  {
    "elevation_name": "Unnamed Point",
    "city": "HOPKINTON",
    "elevation_ft": 614,
    "elevation_type": "peak",
    "TOWN_ID": 139,
    "TYPE": "T",
    "COUNTY": "MIDDLESEX",
    "FIPS_STCO": 25017,
    "POP2010": 14925,
    "POP2020": 18758,
    "POPCH10_20": 3833,
    "_max": 187,
    "latitude": 42.19583333,
    "longitude": -71.53111111,
    "view": "",
    "chp": ""
  },
  {
    "elevation_name": "Unnamed Point",
    "city": "MENDON",
    "elevation_ft": 614,
    "elevation_type": "peak",
    "TOWN_ID": 179,
    "TYPE": "T",
    "COUNTY": "WORCESTER",
    "FIPS_STCO": 25027,
    "POP2010": 5839,
    "POP2020": 6228,
    "POPCH10_20": 389,
    "_max": 187,
    "latitude": 42.12916667,
    "longitude": -71.58027778,
    "view": "",
    "chp": ""
  },
  {
    "elevation_name": "Nobscot Hill",
    "city": "FRAMINGHAM",
    "elevation_ft": 607,
    "elevation_type": "peak",
    "TOWN_ID": 100,
    "TYPE": "C",
    "COUNTY": "MIDDLESEX",
    "FIPS_STCO": 25017,
    "POP2010": 68318,
    "POP2020": 72362,
    "POPCH10_20": 4044,
    "_max": 185,
    "latitude": 42.34611111,
    "longitude": -71.44916667,
    "view": "",
    "chp": ""
  },
  {
    "elevation_name": "Sligo Hill",
    "city": "MARLBOROUGH",
    "elevation_ft": 607,
    "elevation_type": "peak",
    "TOWN_ID": 170,
    "TYPE": "C",
    "COUNTY": "MIDDLESEX",
    "FIPS_STCO": 25017,
    "POP2010": 38499,
    "POP2020": 41793,
    "POPCH10_20": 3294,
    "_max": 185,
    "latitude": 42.34694444,
    "longitude": -71.56888889,
    "view": "",
    "chp": ""
  },
  {
    "elevation_name": "Unnamed Point",
    "city": "NORTHBRIDGE",
    "elevation_ft": 600,
    "elevation_type": "peak",
    "TOWN_ID": 216,
    "TYPE": "T",
    "COUNTY": "WORCESTER",
    "FIPS_STCO": 25027,
    "POP2010": 15707,
    "POP2020": 16335,
    "POPCH10_20": 628,
    "_max": 183,
    "latitude": 42.13305556,
    "longitude": -71.67222222,
    "view": "",
    "chp": ""
  },
  {
    "elevation_name": "Unnamed Point",
    "city": "LANCASTER",
    "elevation_ft": 581,
    "elevation_type": "peak",
    "TOWN_ID": 147,
    "TYPE": "T",
    "COUNTY": "WORCESTER",
    "FIPS_STCO": 25027,
    "POP2010": 8055,
    "POP2020": 8441,
    "POPCH10_20": 386,
    "_max": 177,
    "latitude": 42.45222222,
    "longitude": -71.7175,
    "view": "",
    "chp": ""
  },
  {
    "elevation_name": "Unnamed Point",
    "city": "HOPEDALE",
    "elevation_ft": 574,
    "elevation_type": "peak",
    "TOWN_ID": 138,
    "TYPE": "T",
    "COUNTY": "WORCESTER",
    "FIPS_STCO": 25027,
    "POP2010": 5911,
    "POP2020": 6017,
    "POPCH10_20": 106,
    "_max": 175,
    "latitude": 42.13944444,
    "longitude": -71.56638889,
    "view": "",
    "chp": ""
  },
  {
    "elevation_name": "Magomiscock Hill",
    "city": "MILFORD",
    "elevation_ft": 574,
    "elevation_type": "peak",
    "TOWN_ID": 185,
    "TYPE": "T",
    "COUNTY": "WORCESTER",
    "FIPS_STCO": 25027,
    "POP2010": 27999,
    "POP2020": 30379,
    "POPCH10_20": 2380,
    "_max": 175,
    "latitude": 42.15361111,
    "longitude": -71.54555556,
    "view": "",
    "chp": ""
  },
  {
    "elevation_name": "Unnamed Point",
    "city": "CLINTON",
    "elevation_ft": 571,
    "elevation_type": "peak",
    "TOWN_ID": 64,
    "TYPE": "T",
    "COUNTY": "WORCESTER",
    "FIPS_STCO": 25027,
    "POP2010": 13606,
    "POP2020": 15428,
    "POPCH10_20": 1822,
    "_max": 174,
    "latitude": 42.39583333,
    "longitude": -71.6725,
    "view": "",
    "chp": ""
  },
  {
    "elevation_name": "Unnamed Point",
    "city": "PEPPERELL",
    "elevation_ft": 564,
    "elevation_type": "point",
    "TOWN_ID": 232,
    "TYPE": "T",
    "COUNTY": "MIDDLESEX",
    "FIPS_STCO": 25017,
    "POP2010": 11497,
    "POP2020": 11604,
    "POPCH10_20": 107,
    "_max": 172,
    "latitude": 42.6675,
    "longitude": -71.64444444,
    "view": "",
    "chp": ""
  },
  {
    "elevation_name": "Unnamed Point",
    "city": "CHICOPEE",
    "elevation_ft": 548,
    "elevation_type": "point",
    "TOWN_ID": 61,
    "TYPE": "C",
    "COUNTY": "HAMPDEN",
    "FIPS_STCO": 25013,
    "POP2010": 55298,
    "POP2020": 55560,
    "POPCH10_20": 262,
    "_max": 167,
    "latitude": 42.19111111,
    "longitude": -72.54194444,
    "view": "",
    "chp": ""
  },
  {
    "elevation_name": "Chestnut Hill",
    "city": "GROTON",
    "elevation_ft": 545,
    "elevation_type": "peak",
    "TOWN_ID": 115,
    "TYPE": "T",
    "COUNTY": "MIDDLESEX",
    "FIPS_STCO": 25017,
    "POP2010": 10646,
    "POP2020": 11315,
    "POPCH10_20": 669,
    "_max": 166,
    "latitude": 42.62138889,
    "longitude": -71.555,
    "view": "",
    "chp": ""
  },
  {
    "elevation_name": "Moose Hill",
    "city": "SHARON",
    "elevation_ft": 545,
    "elevation_type": "peak",
    "TOWN_ID": 266,
    "TYPE": "T",
    "COUNTY": "NORFOLK",
    "FIPS_STCO": 25021,
    "POP2010": 17612,
    "POP2020": 18575,
    "POPCH10_20": 963,
    "_max": 166,
    "latitude": 42.12388889,
    "longitude": -71.21388889,
    "view": "",
    "chp": ""
  },
  {
    "elevation_name": "Chestnut Hill slope",
    "city": "MILLVILLE",
    "elevation_ft": 538,
    "elevation_type": "slope",
    "TOWN_ID": 188,
    "TYPE": "T",
    "COUNTY": "WORCESTER",
    "FIPS_STCO": 25027,
    "POP2010": 3190,
    "POP2020": 3174,
    "POPCH10_20": -16,
    "_max": 164,
    "latitude": 42.06388889,
    "longitude": -71.57305556,
    "view": "",
    "chp": ""
  },
  {
    "elevation_name": "Oak Hill (Littleton)",
    "city": "LITTLETON",
    "elevation_ft": 532,
    "elevation_type": "slope",
    "TOWN_ID": 158,
    "TYPE": "T",
    "COUNTY": "MIDDLESEX",
    "FIPS_STCO": 25017,
    "POP2010": 8924,
    "POP2020": 10141,
    "POPCH10_20": 1217,
    "_max": 162,
    "latitude": 42.5325,
    "longitude": -71.52805556,
    "view": "",
    "chp": ""
  },
  {
    "elevation_name": "Nobscot Hill slope",
    "city": "SUDBURY",
    "elevation_ft": 528,
    "elevation_type": "slope",
    "TOWN_ID": 288,
    "TYPE": "T",
    "COUNTY": "MIDDLESEX",
    "FIPS_STCO": 25017,
    "POP2010": 17659,
    "POP2020": 18934,
    "POPCH10_20": 1275,
    "_max": 161,
    "latitude": 42.34861111,
    "longitude": -71.45083333,
    "view": "",
    "chp": ""
  },
  {
    "elevation_name": "Unnamed Point",
    "city": "FRANKLIN",
    "elevation_ft": 522,
    "elevation_type": "point",
    "TOWN_ID": 101,
    "TYPE": "TC",
    "COUNTY": "NORFOLK",
    "FIPS_STCO": 25021,
    "POP2010": 31635,
    "POP2020": 33261,
    "POPCH10_20": 1626,
    "_max": 159,
    "latitude": 42.05638889,
    "longitude": -71.39277778,
    "view": "",
    "chp": ""
  },
  {
    "elevation_name": "Mount Nebo",
    "city": "SOUTHBOROUGH",
    "elevation_ft": 522,
    "elevation_type": "peak",
    "TOWN_ID": 277,
    "TYPE": "T",
    "COUNTY": "WORCESTER",
    "FIPS_STCO": 25027,
    "POP2010": 9767,
    "POP2020": 10450,
    "POPCH10_20": 683,
    "_max": 159,
    "latitude": 42.29277778,
    "longitude": -71.56638889,
    "view": "",
    "chp": ""
  },
  {
    "elevation_name": "Unnamed Point",
    "city": "HUDSON",
    "elevation_ft": 518,
    "elevation_type": "peak",
    "TOWN_ID": 141,
    "TYPE": "T",
    "COUNTY": "MIDDLESEX",
    "FIPS_STCO": 25017,
    "POP2010": 19063,
    "POP2020": 20092,
    "POPCH10_20": 1029,
    "_max": 158,
    "latitude": 42.37277778,
    "longitude": -71.5725,
    "view": "",
    "chp": ""
  },
  {
    "elevation_name": "Hunting Hill",
    "city": "SHIRLEY",
    "elevation_ft": 515,
    "elevation_type": "peak",
    "TOWN_ID": 270,
    "TYPE": "T",
    "COUNTY": "MIDDLESEX",
    "FIPS_STCO": 25017,
    "POP2010": 7211,
    "POP2020": 7431,
    "POPCH10_20": 220,
    "_max": 157,
    "latitude": 42.60416667,
    "longitude": -71.66583333,
    "view": "",
    "chp": ""
  },
  {
    "elevation_name": "Unnamed Point",
    "city": "BLACKSTONE",
    "elevation_ft": 512,
    "elevation_type": "peak",
    "TOWN_ID": 32,
    "TYPE": "T",
    "COUNTY": "WORCESTER",
    "FIPS_STCO": 25027,
    "POP2010": 9026,
    "POP2020": 9208,
    "POPCH10_20": 182,
    "_max": 156,
    "latitude": 42.05888889,
    "longitude": -71.55416667,
    "view": "",
    "chp": ""
  },
  {
    "elevation_name": "Unnamed Point",
    "city": "ATTLEBORO",
    "elevation_ft": 509,
    "elevation_type": "peak",
    "TOWN_ID": 16,
    "TYPE": "C",
    "COUNTY": "BRISTOL",
    "FIPS_STCO": 25005,
    "POP2010": 43593,
    "POP2020": 46461,
    "POPCH10_20": 2868,
    "_max": 155,
    "latitude": 41.94416667,
    "longitude": -71.31166667,
    "view": "",
    "chp": ""
  },
  {
    "elevation_name": "Chickatawbut Hill",
    "city": "QUINCY",
    "elevation_ft": 509,
    "elevation_type": "peak",
    "TOWN_ID": 243,
    "TYPE": "C",
    "COUNTY": "NORFOLK",
    "FIPS_STCO": 25021,
    "POP2010": 92271,
    "POP2020": 101636,
    "POPCH10_20": 9365,
    "_max": 155,
    "latitude": 42.2225,
    "longitude": -71.06111111,
    "view": "",
    "chp": ""
  },
  {
    "elevation_name": "Unnamed Point",
    "city": "BOXBOROUGH",
    "elevation_ft": 499,
    "elevation_type": "peak",
    "TOWN_ID": 37,
    "TYPE": "T",
    "COUNTY": "MIDDLESEX",
    "FIPS_STCO": 25017,
    "POP2010": 4996,
    "POP2020": 5506,
    "POPCH10_20": 510,
    "_max": 152,
    "latitude": 42.49305556,
    "longitude": -71.52055556,
    "view": "",
    "chp": ""
  },
  {
    "elevation_name": "Unnamed Point",
    "city": "AYER",
    "elevation_ft": 495,
    "elevation_type": "peak",
    "TOWN_ID": 19,
    "TYPE": "T",
    "COUNTY": "MIDDLESEX",
    "FIPS_STCO": 25017,
    "POP2010": 7427,
    "POP2020": 8479,
    "POPCH10_20": 1052,
    "_max": 151,
    "latitude": 42.57416667,
    "longitude": -71.55944444,
    "view": "",
    "chp": ""
  },
  {
    "elevation_name": "Bucks Hill",
    "city": "WRENTHAM",
    "elevation_ft": 495,
    "elevation_type": "peak",
    "TOWN_ID": 350,
    "TYPE": "T",
    "COUNTY": "NORFOLK",
    "FIPS_STCO": 25021,
    "POP2010": 10955,
    "POP2020": 12178,
    "POPCH10_20": 1223,
    "_max": 151,
    "latitude": 42.03166667,
    "longitude": -71.40416667,
    "view": "",
    "chp": ""
  },
  {
    "elevation_name": "Prospect Hill",
    "city": "WESTFORD",
    "elevation_ft": 489,
    "elevation_type": "peak",
    "TOWN_ID": 330,
    "TYPE": "T",
    "COUNTY": "MIDDLESEX",
    "FIPS_STCO": 25017,
    "POP2010": 21951,
    "POP2020": 24643,
    "POPCH10_20": 2692,
    "_max": 149,
    "latitude": 42.57666667,
    "longitude": -71.44194444,
    "view": "",
    "chp": ""
  },
  {
    "elevation_name": "Prospect Hill",
    "city": "WALTHAM",
    "elevation_ft": 476,
    "elevation_type": "peak",
    "TOWN_ID": 308,
    "TYPE": "C",
    "COUNTY": "MIDDLESEX",
    "FIPS_STCO": 25017,
    "POP2010": 60632,
    "POP2020": 65218,
    "POPCH10_20": 4586,
    "_max": 145,
    "latitude": 42.38861111,
    "longitude": -71.25361111,
    "view": "",
    "chp": ""
  },
  {
    "elevation_name": "Gillette Stadium parking lot",
    "city": "FOXBOROUGH",
    "elevation_ft": 472,
    "elevation_type": "point",
    "TOWN_ID": 99,
    "TYPE": "T",
    "COUNTY": "NORFOLK",
    "FIPS_STCO": 25021,
    "POP2010": 16865,
    "POP2020": 18618,
    "POPCH10_20": 1753,
    "_max": 144,
    "latitude": 42.08944444,
    "longitude": -71.2675,
    "view": "",
    "chp": ""
  },
  {
    "elevation_name": "Marble Hill",
    "city": "STOW",
    "elevation_ft": 472,
    "elevation_type": "peak",
    "TOWN_ID": 286,
    "TYPE": "T",
    "COUNTY": "MIDDLESEX",
    "FIPS_STCO": 25017,
    "POP2010": 6590,
    "POP2020": 7174,
    "POPCH10_20": 584,
    "_max": 144,
    "latitude": 42.44194444,
    "longitude": -71.51833333,
    "view": "",
    "chp": ""
  },
  {
    "elevation_name": "Wildcat Hill",
    "city": "ASHLAND",
    "elevation_ft": 469,
    "elevation_type": "peak",
    "TOWN_ID": 14,
    "TYPE": "T",
    "COUNTY": "MIDDLESEX",
    "FIPS_STCO": 25017,
    "POP2010": 16593,
    "POP2020": 18832,
    "POPCH10_20": 2239,
    "_max": 143,
    "latitude": 42.27722222,
    "longitude": -71.4875,
    "view": "",
    "chp": ""
  },
  {
    "elevation_name": "Unnamed Point",
    "city": "HOLLISTON",
    "elevation_ft": 463,
    "elevation_type": "peak",
    "TOWN_ID": 136,
    "TYPE": "T",
    "COUNTY": "MIDDLESEX",
    "FIPS_STCO": 25017,
    "POP2010": 13547,
    "POP2020": 14996,
    "POPCH10_20": 1449,
    "_max": 141,
    "latitude": 42.17111111,
    "longitude": -71.49805556,
    "view": "",
    "chp": ""
  },
  {
    "elevation_name": "Unnamed Point",
    "city": "PLAINVILLE",
    "elevation_ft": 459,
    "elevation_type": "peak",
    "TOWN_ID": 238,
    "TYPE": "T",
    "COUNTY": "NORFOLK",
    "FIPS_STCO": 25021,
    "POP2010": 8264,
    "POP2020": 9945,
    "POPCH10_20": 1681,
    "_max": 140,
    "latitude": 42.01138889,
    "longitude": -71.35944444,
    "view": "",
    "chp": ""
  },
  {
    "elevation_name": "Flagg Hill slope",
    "city": "ACTON",
    "elevation_ft": 453,
    "elevation_type": "slope",
    "TOWN_ID": 2,
    "TYPE": "T",
    "COUNTY": "MIDDLESEX",
    "FIPS_STCO": 25017,
    "POP2010": 21924,
    "POP2020": 24021,
    "POPCH10_20": 2097,
    "_max": 138,
    "latitude": 42.46444444,
    "longitude": -71.49805556,
    "view": "",
    "chp": ""
  },
  {
    "elevation_name": "Unnamed Point",
    "city": "EAST LONGMEADOW",
    "elevation_ft": 453,
    "elevation_type": "peak",
    "TOWN_ID": 85,
    "TYPE": "T",
    "COUNTY": "HAMPDEN",
    "FIPS_STCO": 25013,
    "POP2010": 15720,
    "POP2020": 16430,
    "POPCH10_20": 710,
    "_max": 138,
    "latitude": 42.04472222,
    "longitude": -72.51027778,
    "view": "",
    "chp": ""
  },
  {
    "elevation_name": "Snow Hill",
    "city": "DOVER",
    "elevation_ft": 446,
    "elevation_type": "peak",
    "TOWN_ID": 78,
    "TYPE": "T",
    "COUNTY": "NORFOLK",
    "FIPS_STCO": 25021,
    "POP2010": 5589,
    "POP2020": 5923,
    "POPCH10_20": 334,
    "_max": 136,
    "latitude": 42.22416667,
    "longitude": -71.28861111,
    "view": "",
    "chp": ""
  },
  {
    "elevation_name": "Holt Hill",
    "city": "ANDOVER",
    "elevation_ft": 443,
    "elevation_type": "peak",
    "TOWN_ID": 9,
    "TYPE": "T",
    "COUNTY": "ESSEX",
    "FIPS_STCO": 25009,
    "POP2010": 33201,
    "POP2020": 36569,
    "POPCH10_20": 3368,
    "_max": 135,
    "latitude": 42.64083333,
    "longitude": -71.10694444,
    "view": "",
    "chp": ""
  },
  {
    "elevation_name": "Cedar Hill",
    "city": "MEDFIELD",
    "elevation_ft": 443,
    "elevation_type": "peak",
    "TOWN_ID": 175,
    "TYPE": "T",
    "COUNTY": "NORFOLK",
    "FIPS_STCO": 25021,
    "POP2010": 12024,
    "POP2020": 12799,
    "POPCH10_20": 775,
    "_max": 135,
    "latitude": 42.21472222,
    "longitude": -71.27555556,
    "view": "",
    "chp": ""
  },
  {
    "elevation_name": "",
    "city": "TAUNTON",
    "elevation_ft": 433,
    "elevation_type": "",
    "TOWN_ID": 293,
    "TYPE": "C",
    "COUNTY": "BRISTOL",
    "FIPS_STCO": 25005,
    "POP2010": 55874,
    "POP2020": 59408,
    "POPCH10_20": 3534,
    "_max": 132,
    "latitude": 41.94444444,
    "longitude": -71.10916667,
    "view": "",
    "chp": ""
  },
  {
    "elevation_name": "Unnamed Point",
    "city": "TYNGSBOROUGH",
    "elevation_ft": 433,
    "elevation_type": "peak",
    "TOWN_ID": 301,
    "TYPE": "T",
    "COUNTY": "MIDDLESEX",
    "FIPS_STCO": 25017,
    "POP2010": 11292,
    "POP2020": 12380,
    "POPCH10_20": 1088,
    "_max": 132,
    "latitude": 42.62305556,
    "longitude": -71.48861111,
    "view": "",
    "chp": ""
  },
  {
    "elevation_name": "Regan Hill",
    "city": "NATICK",
    "elevation_ft": 427,
    "elevation_type": "peak",
    "TOWN_ID": 198,
    "TYPE": "T",
    "COUNTY": "MIDDLESEX",
    "FIPS_STCO": 25017,
    "POP2010": 33006,
    "POP2020": 37006,
    "POPCH10_20": 4000,
    "_max": 130,
    "latitude": 42.25055556,
    "longitude": -71.30472222,
    "view": "",
    "chp": ""
  },
  {
    "elevation_name": "Sunrise Hill",
    "city": "NORTH ATTLEBOROUGH",
    "elevation_ft": 427,
    "elevation_type": "peak",
    "TOWN_ID": 211,
    "TYPE": "TC",
    "COUNTY": "BRISTOL",
    "FIPS_STCO": 25005,
    "POP2010": 28712,
    "POP2020": 30834,
    "POPCH10_20": 2122,
    "_max": 130,
    "latitude": 42.00138889,
    "longitude": -71.31611111,
    "view": "",
    "chp": ""
  },
  {
    "elevation_name": "Unnamed Point",
    "city": "DRACUT",
    "elevation_ft": 423,
    "elevation_type": "peak",
    "TOWN_ID": 79,
    "TYPE": "T",
    "COUNTY": "MIDDLESEX",
    "FIPS_STCO": 25017,
    "POP2010": 29457,
    "POP2020": 32617,
    "POPCH10_20": 3160,
    "_max": 129,
    "latitude": 42.73472222,
    "longitude": -71.255,
    "view": "",
    "chp": ""
  },
  {
    "elevation_name": "Mills Hill",
    "city": "NORTH ANDOVER",
    "elevation_ft": 420,
    "elevation_type": "peak",
    "TOWN_ID": 210,
    "TYPE": "T",
    "COUNTY": "ESSEX",
    "FIPS_STCO": 25009,
    "POP2010": 28352,
    "POP2020": 30915,
    "POPCH10_20": 2563,
    "_max": 128,
    "latitude": 42.67111111,
    "longitude": -71.10944444,
    "view": "",
    "chp": ""
  },
  {
    "elevation_name": "Unnamed Point",
    "city": "WAYLAND",
    "elevation_ft": 420,
    "elevation_type": "peak",
    "TOWN_ID": 315,
    "TYPE": "T",
    "COUNTY": "MIDDLESEX",
    "FIPS_STCO": 25017,
    "POP2010": 12994,
    "POP2020": 13943,
    "POPCH10_20": 949,
    "_max": 128,
    "latitude": 42.34972222,
    "longitude": -71.34638889,
    "view": "",
    "chp": ""
  },
  {
    "elevation_name": "Unnamed Point",
    "city": "BELLINGHAM",
    "elevation_ft": 417,
    "elevation_type": "peak",
    "TOWN_ID": 25,
    "TYPE": "T",
    "COUNTY": "NORFOLK",
    "FIPS_STCO": 25021,
    "POP2010": 16332,
    "POP2020": 16945,
    "POPCH10_20": 613,
    "_max": 127,
    "latitude": 42.04388889,
    "longitude": -71.455,
    "view": "",
    "chp": ""
  },
  {
    "elevation_name": "Forest Hill",
    "city": "DUNSTABLE",
    "elevation_ft": 417,
    "elevation_type": "peak",
    "TOWN_ID": 81,
    "TYPE": "T",
    "COUNTY": "MIDDLESEX",
    "FIPS_STCO": 25017,
    "POP2010": 3179,
    "POP2020": 3358,
    "POPCH10_20": 179,
    "_max": 127,
    "latitude": 42.6625,
    "longitude": -71.45861111,
    "view": "",
    "chp": ""
  },
  {
    "elevation_name": "Unnamed Point",
    "city": "METHUEN",
    "elevation_ft": 417,
    "elevation_type": "peak",
    "TOWN_ID": 181,
    "TYPE": "C",
    "COUNTY": "ESSEX",
    "FIPS_STCO": 25009,
    "POP2010": 47255,
    "POP2020": 53059,
    "POPCH10_20": 5804,
    "_max": 127,
    "latitude": 42.73472222,
    "longitude": -71.25444444,
    "view": "",
    "chp": ""
  },
  {
    "elevation_name": "Robbins Hill",
    "city": "CHELMSFORD",
    "elevation_ft": 413,
    "elevation_type": "peak",
    "TOWN_ID": 56,
    "TYPE": "T",
    "COUNTY": "MIDDLESEX",
    "FIPS_STCO": 25017,
    "POP2010": 33802,
    "POP2020": 36392,
    "POPCH10_20": 2590,
    "_max": 126,
    "latitude": 42.58527778,
    "longitude": -71.365,
    "view": "",
    "chp": ""
  },
  {
    "elevation_name": "Manomet Hill",
    "city": "PLYMOUTH",
    "elevation_ft": 410,
    "elevation_type": "peak",
    "TOWN_ID": 239,
    "TYPE": "T",
    "COUNTY": "PLYMOUTH",
    "FIPS_STCO": 25023,
    "POP2010": 56468,
    "POP2020": 61217,
    "POPCH10_20": 4749,
    "_max": 125,
    "latitude": 41.92694444,
    "longitude": -70.59138889,
    "view": "",
    "chp": ""
  },
  {
    "elevation_name": "Brush Hill",
    "city": "SHERBORN",
    "elevation_ft": 407,
    "elevation_type": "peak",
    "TOWN_ID": 269,
    "TYPE": "T",
    "COUNTY": "MIDDLESEX",
    "FIPS_STCO": 25017,
    "POP2010": 4119,
    "POP2020": 4401,
    "POPCH10_20": 282,
    "_max": 124,
    "latitude": 42.2525,
    "longitude": -71.38416667,
    "view": "",
    "chp": ""
  },
  {
    "elevation_name": "Unnamed Point",
    "city": "LINCOLN",
    "elevation_ft": 404,
    "elevation_type": "peak",
    "TOWN_ID": 157,
    "TYPE": "T",
    "COUNTY": "MIDDLESEX",
    "FIPS_STCO": 25017,
    "POP2010": 6362,
    "POP2020": 7014,
    "POPCH10_20": 652,
    "_max": 123,
    "latitude": 42.43055556,
    "longitude": -71.3,
    "view": "",
    "chp": ""
  },
  {
    "elevation_name": "Unnamed Point",
    "city": "WESTON",
    "elevation_ft": 404,
    "elevation_type": "peak",
    "TOWN_ID": 333,
    "TYPE": "T",
    "COUNTY": "MIDDLESEX",
    "FIPS_STCO": 25017,
    "POP2010": 11261,
    "POP2020": 11851,
    "POPCH10_20": 590,
    "_max": 123,
    "latitude": 42.35444444,
    "longitude": -71.31777778,
    "view": "",
    "chp": ""
  },
  {
    "elevation_name": "Ames Hill",
    "city": "TEWKSBURY",
    "elevation_ft": 400,
    "elevation_type": "peak",
    "TOWN_ID": 295,
    "TYPE": "T",
    "COUNTY": "MIDDLESEX",
    "FIPS_STCO": 25017,
    "POP2010": 28961,
    "POP2020": 31342,
    "POPCH10_20": 2381,
    "_max": 122,
    "latitude": 42.63444444,
    "longitude": -71.22861111,
    "view": "",
    "chp": ""
  },
  {
    "elevation_name": "Unnamed Point",
    "city": "ARLINGTON",
    "elevation_ft": 387,
    "elevation_type": "peak",
    "TOWN_ID": 10,
    "TYPE": "T",
    "COUNTY": "MIDDLESEX",
    "FIPS_STCO": 25017,
    "POP2010": 42844,
    "POP2020": 46308,
    "POPCH10_20": 3464,
    "_max": 118,
    "latitude": 42.415,
    "longitude": -71.18055556,
    "view": "",
    "chp": ""
  },
  {
    "elevation_name": "Summer Hill",
    "city": "MAYNARD",
    "elevation_ft": 387,
    "elevation_type": "peak",
    "TOWN_ID": 174,
    "TYPE": "T",
    "COUNTY": "MIDDLESEX",
    "FIPS_STCO": 25017,
    "POP2010": 10106,
    "POP2020": 10746,
    "POPCH10_20": 640,
    "_max": 118,
    "latitude": 42.43416667,
    "longitude": -71.47083333,
    "view": "",
    "chp": ""
  },
  {
    "elevation_name": "Annursac Hill",
    "city": "CONCORD",
    "elevation_ft": 384,
    "elevation_type": "peak",
    "TOWN_ID": 67,
    "TYPE": "T",
    "COUNTY": "MIDDLESEX",
    "FIPS_STCO": 25017,
    "POP2010": 17668,
    "POP2020": 18491,
    "POPCH10_20": 823,
    "_max": 117,
    "latitude": 42.47833333,
    "longitude": -71.395,
    "view": "",
    "chp": ""
  },
  {
    "elevation_name": "Unnamed Point",
    "city": "WALPOLE",
    "elevation_ft": 384,
    "elevation_type": "peak",
    "TOWN_ID": 307,
    "TYPE": "T",
    "COUNTY": "NORFOLK",
    "FIPS_STCO": 25021,
    "POP2010": 24070,
    "POP2020": 26383,
    "POPCH10_20": 2313,
    "_max": 117,
    "latitude": 42.09166667,
    "longitude": -71.28111111,
    "view": "",
    "chp": ""
  },
  {
    "elevation_name": "Unnamed Point",
    "city": "MEDWAY",
    "elevation_ft": 377,
    "elevation_type": "peak",
    "TOWN_ID": 177,
    "TYPE": "T",
    "COUNTY": "NORFOLK",
    "FIPS_STCO": 25021,
    "POP2010": 12752,
    "POP2020": 13115,
    "POPCH10_20": 363,
    "_max": 115,
    "latitude": 42.16666667,
    "longitude": -71.45333333,
    "view": "",
    "chp": ""
  },
  {
    "elevation_name": "Unnamed Point",
    "city": "NORFOLK",
    "elevation_ft": 377,
    "elevation_type": "peak",
    "TOWN_ID": 208,
    "TYPE": "T",
    "COUNTY": "NORFOLK",
    "FIPS_STCO": 25021,
    "POP2010": 11227,
    "POP2020": 11662,
    "POPCH10_20": 435,
    "_max": 115,
    "latitude": 42.09138889,
    "longitude": -71.28194444,
    "view": "",
    "chp": ""
  },
  {
    "elevation_name": "Copicut Hill",
    "city": "FALL RIVER",
    "elevation_ft": 375,
    "elevation_type": "peak",
    "TOWN_ID": 95,
    "TYPE": "C",
    "COUNTY": "BRISTOL",
    "FIPS_STCO": 25005,
    "POP2010": 88857,
    "POP2020": 94000,
    "POPCH10_20": 5143,
    "_max": 123,
    "latitude": 41.72105,
    "longitude": -71.05916,
    "view": "",
    "chp": ""
  },
  {
    "elevation_name": "Unnamed Point",
    "city": "LEXINGTON",
    "elevation_ft": 374,
    "elevation_type": "peak",
    "TOWN_ID": 155,
    "TYPE": "T",
    "COUNTY": "MIDDLESEX",
    "FIPS_STCO": 25017,
    "POP2010": 31394,
    "POP2020": 34454,
    "POPCH10_20": 3060,
    "_max": 114,
    "latitude": 42.43888889,
    "longitude": -71.23694444,
    "view": "",
    "chp": ""
  },
  {
    "elevation_name": "Single Tree Hill",
    "city": "BROOKLINE",
    "elevation_ft": 371,
    "elevation_type": "peak",
    "TOWN_ID": 46,
    "TYPE": "T",
    "COUNTY": "NORFOLK",
    "FIPS_STCO": 25021,
    "POP2010": 58732,
    "POP2020": 63191,
    "POPCH10_20": 4459,
    "_max": 113,
    "latitude": 42.32416667,
    "longitude": -71.15138889,
    "view": "",
    "chp": ""
  },
  {
    "elevation_name": "Baldpate Hill",
    "city": "GEORGETOWN",
    "elevation_ft": 371,
    "elevation_type": "peak",
    "TOWN_ID": 105,
    "TYPE": "T",
    "COUNTY": "ESSEX",
    "FIPS_STCO": 25009,
    "POP2010": 8183,
    "POP2020": 8470,
    "POPCH10_20": 287,
    "_max": 113,
    "latitude": 42.70833333,
    "longitude": -71.01527778,
    "view": "",
    "chp": ""
  },
  {
    "elevation_name": "",
    "city": "WESTPORT",
    "elevation_ft": 371,
    "elevation_type": "peak",
    "TOWN_ID": 334,
    "TYPE": "T",
    "COUNTY": "BRISTOL",
    "FIPS_STCO": 25005,
    "POP2010": 15532,
    "POP2020": 16339,
    "POPCH10_20": 807,
    "_max": 113,
    "latitude": 41.60583333,
    "longitude": -71.12111111,
    "view": "",
    "chp": ""
  },
  {
    "elevation_name": "Pheasant Hill",
    "city": "WESTWOOD",
    "elevation_ft": 371,
    "elevation_type": "peak",
    "TOWN_ID": 335,
    "TYPE": "T",
    "COUNTY": "NORFOLK",
    "FIPS_STCO": 25021,
    "POP2010": 14618,
    "POP2020": 16266,
    "POPCH10_20": 1648,
    "_max": 113,
    "latitude": 42.20611111,
    "longitude": -71.24722222,
    "view": "",
    "chp": ""
  },
  {
    "elevation_name": "",
    "city": "LAKEVILLE",
    "elevation_ft": 367,
    "elevation_type": "peak",
    "TOWN_ID": 146,
    "TYPE": "T",
    "COUNTY": "PLYMOUTH",
    "FIPS_STCO": 25023,
    "POP2010": 10602,
    "POP2020": 11523,
    "POPCH10_20": 921,
    "_max": 112,
    "latitude": 41.85055556,
    "longitude": -70.96583333,
    "view": "",
    "chp": ""
  },
  {
    "elevation_name": "Unnamed Point",
    "city": "SPRINGFIELD",
    "elevation_ft": 367,
    "elevation_type": "peak",
    "TOWN_ID": 281,
    "TYPE": "C",
    "COUNTY": "HAMPDEN",
    "FIPS_STCO": 25013,
    "POP2010": 153060,
    "POP2020": 155929,
    "POPCH10_20": 2869,
    "_max": 112,
    "latitude": 42.09138889,
    "longitude": -72.48916667,
    "view": "",
    "chp": ""
  },
  {
    "elevation_name": "Unnamed Point",
    "city": "STOUGHTON",
    "elevation_ft": 367,
    "elevation_type": "peak",
    "TOWN_ID": 285,
    "TYPE": "T",
    "COUNTY": "NORFOLK",
    "FIPS_STCO": 25021,
    "POP2010": 26962,
    "POP2020": 29281,
    "POPCH10_20": 2319,
    "_max": 112,
    "latitude": 42.08805556,
    "longitude": -71.13083333,
    "view": "",
    "chp": ""
  },
  {
    "elevation_name": "Zion Hill",
    "city": "WOBURN",
    "elevation_ft": 364,
    "elevation_type": "peak",
    "TOWN_ID": 347,
    "TYPE": "C",
    "COUNTY": "MIDDLESEX",
    "FIPS_STCO": 25017,
    "POP2010": 38120,
    "POP2020": 40876,
    "POPCH10_20": 2756,
    "_max": 111,
    "latitude": 42.45527778,
    "longitude": -71.17888889,
    "view": "",
    "chp": ""
  },
  {
    "elevation_name": "Bellevue Hill",
    "city": "BOSTON",
    "elevation_ft": 361,
    "elevation_type": "peak",
    "TOWN_ID": 35,
    "TYPE": "C",
    "COUNTY": "SUFFOLK",
    "FIPS_STCO": 25025,
    "POP2010": 617594,
    "POP2020": 675647,
    "POPCH10_20": 58053,
    "_max": 110,
    "latitude": 42.27555556,
    "longitude": -71.14361111,
    "view": "",
    "chp": ""
  },
  {
    "elevation_name": "Unnamed Point",
    "city": "CARLISLE",
    "elevation_ft": 361,
    "elevation_type": "peak",
    "TOWN_ID": 51,
    "TYPE": "T",
    "COUNTY": "MIDDLESEX",
    "FIPS_STCO": 25017,
    "POP2010": 4852,
    "POP2020": 5237,
    "POPCH10_20": 385,
    "_max": 110,
    "latitude": 42.54583333,
    "longitude": -71.32,
    "view": "",
    "chp": ""
  },
  {
    "elevation_name": "Ayers Hill",
    "city": "HAVERHILL",
    "elevation_ft": 361,
    "elevation_type": "peak",
    "TOWN_ID": 128,
    "TYPE": "C",
    "COUNTY": "ESSEX",
    "FIPS_STCO": 25009,
    "POP2010": 60879,
    "POP2020": 67787,
    "POPCH10_20": 6908,
    "_max": 110,
    "latitude": 42.80777778,
    "longitude": -71.05305556,
    "view": "",
    "chp": ""
  },
  {
    "elevation_name": "Red Oak Hill",
    "city": "MERRIMAC",
    "elevation_ft": 361,
    "elevation_type": "peak",
    "TOWN_ID": 180,
    "TYPE": "T",
    "COUNTY": "ESSEX",
    "FIPS_STCO": 25009,
    "POP2010": 6338,
    "POP2020": 6723,
    "POPCH10_20": 385,
    "_max": 110,
    "latitude": 42.84361111,
    "longitude": -71.02638889,
    "view": "",
    "chp": ""
  },
  {
    "elevation_name": "Mount Pisgah",
    "city": "WINCHESTER",
    "elevation_ft": 361,
    "elevation_type": "peak",
    "TOWN_ID": 344,
    "TYPE": "T",
    "COUNTY": "MIDDLESEX",
    "FIPS_STCO": 25017,
    "POP2010": 21374,
    "POP2020": 22970,
    "POPCH10_20": 1596,
    "_max": 110,
    "latitude": 42.44611111,
    "longitude": -71.16555556,
    "view": "",
    "chp": ""
  },
  {
    "elevation_name": "Powow Hill",
    "city": "AMESBURY",
    "elevation_ft": 358,
    "elevation_type": "peak",
    "TOWN_ID": 7,
    "TYPE": "C",
    "COUNTY": "ESSEX",
    "FIPS_STCO": 25009,
    "POP2010": 16283,
    "POP2020": 17366,
    "POPCH10_20": 1083,
    "_max": 109,
    "latitude": 42.86611111,
    "longitude": -70.93833333,
    "view": "",
    "chp": ""
  },
  {
    "elevation_name": "Bayns Hill",
    "city": "BOXFORD",
    "elevation_ft": 351,
    "elevation_type": "peak",
    "TOWN_ID": 38,
    "TYPE": "T",
    "COUNTY": "ESSEX",
    "FIPS_STCO": 25009,
    "POP2010": 7965,
    "POP2020": 8203,
    "POPCH10_20": 238,
    "_max": 107,
    "latitude": 42.69333333,
    "longitude": -71.0425,
    "view": "",
    "chp": ""
  },
  {
    "elevation_name": "Maugus Hill",
    "city": "WELLESLEY",
    "elevation_ft": 345,
    "elevation_type": "peak",
    "TOWN_ID": 317,
    "TYPE": "T",
    "COUNTY": "NORFOLK",
    "FIPS_STCO": 25021,
    "POP2010": 27982,
    "POP2020": 29550,
    "POPCH10_20": 1568,
    "_max": 105,
    "latitude": 42.31055556,
    "longitude": -71.26972222,
    "view": "",
    "chp": ""
  },
  {
    "elevation_name": "Unnamed Point",
    "city": "RANDOLPH",
    "elevation_ft": 341,
    "elevation_type": "peak",
    "TOWN_ID": 244,
    "TYPE": "TC",
    "COUNTY": "NORFOLK",
    "FIPS_STCO": 25021,
    "POP2010": 32112,
    "POP2020": 34984,
    "POPCH10_20": 2872,
    "_max": 104,
    "latitude": 42.17777778,
    "longitude": -71.07777778,
    "view": "",
    "chp": ""
  },
  {
    "elevation_name": "",
    "city": "SOMERSET",
    "elevation_ft": 338,
    "elevation_type": "peak",
    "TOWN_ID": 273,
    "TYPE": "T",
    "COUNTY": "BRISTOL",
    "FIPS_STCO": 25005,
    "POP2010": 18165,
    "POP2020": 18303,
    "POPCH10_20": 138,
    "_max": 103,
    "latitude": 41.78222222,
    "longitude": -71.13888889,
    "view": "",
    "chp": ""
  },
  {
    "elevation_name": "Oak Hill",
    "city": "NEWTON",
    "elevation_ft": 335,
    "elevation_type": "peak",
    "TOWN_ID": 207,
    "TYPE": "C",
    "COUNTY": "MIDDLESEX",
    "FIPS_STCO": 25017,
    "POP2010": 85146,
    "POP2020": 88923,
    "POPCH10_20": 3777,
    "_max": 102,
    "latitude": 42.30305556,
    "longitude": -71.18666667,
    "view": "",
    "chp": ""
  },
  {
    "elevation_name": "Wellington Hill",
    "city": "BELMONT",
    "elevation_ft": 331,
    "elevation_type": "peak",
    "TOWN_ID": 26,
    "TYPE": "T",
    "COUNTY": "MIDDLESEX",
    "FIPS_STCO": 25017,
    "POP2010": 24729,
    "POP2020": 27295,
    "POPCH10_20": 2566,
    "_max": 101,
    "latitude": 42.40361111,
    "longitude": -71.19277778,
    "view": "",
    "chp": ""
  },
  {
    "elevation_name": "Greenleaf Mountain",
    "city": "BURLINGTON",
    "elevation_ft": 331,
    "elevation_type": "peak",
    "TOWN_ID": 48,
    "TYPE": "T",
    "COUNTY": "MIDDLESEX",
    "FIPS_STCO": 25017,
    "POP2010": 24498,
    "POP2020": 26377,
    "POPCH10_20": 1879,
    "_max": 101,
    "latitude": 42.49333333,
    "longitude": -71.19694444,
    "view": "",
    "chp": ""
  },
  {
    "elevation_name": "Fox Hill",
    "city": "BILLERICA",
    "elevation_ft": 325,
    "elevation_type": "peak",
    "TOWN_ID": 31,
    "TYPE": "T",
    "COUNTY": "MIDDLESEX",
    "FIPS_STCO": 25017,
    "POP2010": 40243,
    "POP2020": 42119,
    "POPCH10_20": 1876,
    "_max": 99,
    "latitude": 42.57027778,
    "longitude": -71.25111111,
    "view": "",
    "chp": ""
  },
  {
    "elevation_name": "Bear Hill",
    "city": "STONEHAM",
    "elevation_ft": 322,
    "elevation_type": "peak",
    "TOWN_ID": 284,
    "TYPE": "T",
    "COUNTY": "MIDDLESEX",
    "FIPS_STCO": 25017,
    "POP2010": 21437,
    "POP2020": 23244,
    "POPCH10_20": 1807,
    "_max": 98,
    "latitude": 42.46583333,
    "longitude": -71.10722222,
    "view": "",
    "chp": ""
  },
  {
    "elevation_name": "Unnamed Point",
    "city": "AVON",
    "elevation_ft": 318,
    "elevation_type": "peak",
    "TOWN_ID": 18,
    "TYPE": "T",
    "COUNTY": "NORFOLK",
    "FIPS_STCO": 25021,
    "POP2010": 4356,
    "POP2020": 4777,
    "POPCH10_20": 421,
    "_max": 97,
    "latitude": 42.13083333,
    "longitude": -71.05027778,
    "view": "",
    "chp": ""
  },
  {
    "elevation_name": "Pine Hill",
    "city": "BOURNE",
    "elevation_ft": 315,
    "elevation_type": "peak",
    "TOWN_ID": 36,
    "TYPE": "T",
    "COUNTY": "BARNSTABLE",
    "FIPS_STCO": 25001,
    "POP2010": 19754,
    "POP2020": 20452,
    "POPCH10_20": 698,
    "_max": 96,
    "latitude": 41.70888889,
    "longitude": -70.56611111,
    "view": "",
    "chp": ""
  },
  {
    "elevation_name": "Bird's Hill",
    "city": "NEEDHAM",
    "elevation_ft": 315,
    "elevation_type": "peak",
    "TOWN_ID": 199,
    "TYPE": "T",
    "COUNTY": "NORFOLK",
    "FIPS_STCO": 25021,
    "POP2010": 28886,
    "POP2020": 32091,
    "POPCH10_20": 3205,
    "_max": 96,
    "latitude": 42.28222222,
    "longitude": -71.21638889,
    "view": "",
    "chp": ""
  },
  {
    "elevation_name": "Unnamed Point",
    "city": "MANSFIELD",
    "elevation_ft": 312,
    "elevation_type": "peak",
    "TOWN_ID": 167,
    "TYPE": "T",
    "COUNTY": "BRISTOL",
    "FIPS_STCO": 25005,
    "POP2010": 23184,
    "POP2020": 23860,
    "POPCH10_20": 676,
    "_max": 95,
    "latitude": 42.06,
    "longitude": -71.17083333,
    "view": "",
    "chp": ""
  },
  {
    "elevation_name": "Unnamed Point",
    "city": "DARTMOUTH",
    "elevation_ft": 308,
    "elevation_type": "peak",
    "TOWN_ID": 72,
    "TYPE": "T",
    "COUNTY": "BRISTOL",
    "FIPS_STCO": 25005,
    "POP2010": 34032,
    "POP2020": 33783,
    "POPCH10_20": -249,
    "_max": 94,
    "latitude": 41.68722222,
    "longitude": -71.06111111,
    "view": "",
    "chp": ""
  },
  {
    "elevation_name": "Unnamed Point",
    "city": "DEDHAM",
    "elevation_ft": 308,
    "elevation_type": "peak",
    "TOWN_ID": 73,
    "TYPE": "T",
    "COUNTY": "NORFOLK",
    "FIPS_STCO": 25021,
    "POP2010": 24729,
    "POP2020": 25364,
    "POPCH10_20": 635,
    "_max": 94,
    "latitude": 42.245,
    "longitude": -71.20861111,
    "view": "",
    "chp": ""
  },
  {
    "elevation_name": "Christian Hill",
    "city": "LOWELL",
    "elevation_ft": 308,
    "elevation_type": "peak",
    "TOWN_ID": 160,
    "TYPE": "C",
    "COUNTY": "MIDDLESEX",
    "FIPS_STCO": 25017,
    "POP2010": 106519,
    "POP2020": 115554,
    "POPCH10_20": 9035,
    "_max": 94,
    "latitude": 42.65527778,
    "longitude": -71.29166667,
    "view": "",
    "chp": ""
  },
  {
    "elevation_name": "Unnamed Point",
    "city": "BEDFORD",
    "elevation_ft": 305,
    "elevation_type": "peak",
    "TOWN_ID": 23,
    "TYPE": "T",
    "COUNTY": "MIDDLESEX",
    "FIPS_STCO": 25017,
    "POP2010": 13320,
    "POP2020": 14383,
    "POPCH10_20": 1063,
    "_max": 93,
    "latitude": 42.49,
    "longitude": -71.245,
    "view": "",
    "chp": ""
  },
  {
    "elevation_name": "Unnamed Point",
    "city": "EASTON",
    "elevation_ft": 305,
    "elevation_type": "peak",
    "TOWN_ID": 88,
    "TYPE": "T",
    "COUNTY": "BRISTOL",
    "FIPS_STCO": 25005,
    "POP2010": 23112,
    "POP2020": 25058,
    "POPCH10_20": 1946,
    "_max": 93,
    "latitude": 42.05694444,
    "longitude": -71.16305556,
    "view": "",
    "chp": ""
  },
  {
    "elevation_name": "Monks Hill",
    "city": "KINGSTON",
    "elevation_ft": 305,
    "elevation_type": "peak",
    "TOWN_ID": 145,
    "TYPE": "T",
    "COUNTY": "PLYMOUTH",
    "FIPS_STCO": 25023,
    "POP2010": 12629,
    "POP2020": 13708,
    "POPCH10_20": 1079,
    "_max": 93,
    "latitude": 41.96083333,
    "longitude": -70.72111111,
    "view": "",
    "chp": ""
  },
  {
    "elevation_name": "Unnamed Point",
    "city": "REHOBOTH",
    "elevation_ft": 302,
    "elevation_type": "peak",
    "TOWN_ID": 247,
    "TYPE": "T",
    "COUNTY": "BRISTOL",
    "FIPS_STCO": 25005,
    "POP2010": 11608,
    "POP2020": 12502,
    "POPCH10_20": 894,
    "_max": 92,
    "latitude": 41.88166667,
    "longitude": -71.19805556,
    "view": "",
    "chp": ""
  },
  {
    "elevation_name": "Unnamed Point",
    "city": "DIGHTON",
    "elevation_ft": 299,
    "elevation_type": "peak",
    "TOWN_ID": 76,
    "TYPE": "T",
    "COUNTY": "BRISTOL",
    "FIPS_STCO": 25005,
    "POP2010": 7086,
    "POP2020": 8101,
    "POPCH10_20": 1015,
    "_max": 91,
    "latitude": 41.87694444,
    "longitude": -71.20055556,
    "view": "",
    "chp": ""
  },